#,CUSTOM.date [local], CUSTOM.updateTime [local], OSD.flyTime, OSD.flyTime [s], OSD.latitude, OSD.longitude, OSD.height [ft], OSD.heightMax [ft], OSD.vpsHeight [ft], OSD.altitude [ft], OSD.hSpeed [MPH], OSD.hSpeedMax [MPH], OSD.xSpeed [MPH], OSD.xSpeedMax [MPH], OSD.ySpeed [MPH], OSD.ySpeedMax [MPH], OSD.zSpeed [MPH], OSD.zSpeedMax [MPH], OSD.pitch, OSD.roll, OSD.yaw, OSD.yaw [360], OSD.flycState, OSD.flycCommand, OSD.flightAction, OSD.gpsNum, OSD.gpsLevel, OSD.isGPSUsed, OSD.nonGPSCause, OSD.droneType, OSD.isSwaveWork, OSD.waveError, OSD.goHomeStatus, OSD.batteryType, OSD.ctrlDevice, OSD.isOnGround, OSD.isMotorOn, OSD.isMotorBlocked, OSD.motorStartFailedCause, OSD.motorFailReason, OSD.isImuPreheated, OSD.imuInitFailReason, OSD.isAcceletorOverRange, OSD.isBarometerDeadInAir, OSD.isCompassError, OSD.isGoHomeHeightModified, OSD.canIOCWork, OSD.isNotEnoughForce, OSD.isOutOfLimit, OSD.isPropellerCatapult, OSD.isVibrating, OSD.isVisionUsed, OSD.voltageWarning, GIMBAL.mode, GIMBAL.pitch, GIMBAL.roll, GIMBAL.yaw, GIMBAL.yaw [360], GIMBAL.isPitchAtLimit, GIMBAL.isRollAtLimit, GIMBAL.isYawAtLimit, GIMBAL.isStuck, CAMERA.isPhoto, CAMERA.isVideo, CAMERA.filename, CAMERA.sdCardIsInserted, CAMERA.sdCardState, RC.downlinkSignal, RC.uplinkSignal, RC.aileron, RC.elevator, RC.throttle, RC.rudder, RC.mode, RC.goHomeDepressed, RC.recordDepressed, RC.shutterDepressed, RC.playbackDepressed, RC.wheelDepressed, RC.wheelOffset, RC.custom1Depressed, RC.custom2Depressed, RC.custom3Depressed, RC.custom4Depressed, BATTERY.chargeLevel, BATTERY.currentPV [V], BATTERY.currentCapacity [mAh], BATTERY.fullCapacity [mAh], BATTERY.voltage [V], BATTERY.isCellVoltageEstimated, BATTERY.cellVoltage1 [V], BATTERY.cellVoltage2 [V], BATTERY.cellVoltage3 [V], BATTERY.cellVoltage4 [V], BATTERY.maxCellVoltageDeviation, BATTERY.isCellVoltageDeviationHigh, BATTERY.isVoltageLow, BATTERY.current [A], BATTERY.temperature [F], BATTERY.minTemperature [F], BATTERY.maxTemperature [F], BATTERY.usefulTime [s], BATTERY.goHomeTime [s], BATTERY.landTime [s], BATTERY.goHomeBattery, BATTERY.landBattery, BATTERY.safeFlyRadius, BATTERY.volumeConsume, BATTERY.status, BATTERY.goHomeStatus, BATTERY.goHomeCountdown, BATTERY.lowWarning, BATTERY.lowWarningGoHome, BATTERY.seriousLowWarning, BATTERY.seriousLowWarningLanding, BATTERY.timesCharged, MC.failSafeAction, HOME.latitude, HOME.longitude, HOME.distance [ft], HOME.height [ft], HOME.heightLimit [ft], HOME.isHomeRecord, HOME.goHomeMode, HOME.aircraftHeadDirection, HOME.isDynamicHomePointEnabled, HOME.isReachedLimitDistance, HOME.isReachedLimitHeight, HOME.isCompassCeleing, HOME.compassCeleStatus, HOME.isMultipleFlightModeEnabled, HOME.isBeginnerMode, HOME.isIOCEnabled, HOME.iocMode, HOME.goHomeHeight [ft], HOME.courseLockAngle, HOME.forceLandingHeight [ft], HOME.wind, HOME.dataRecorderFileIndex, RECOVER.appType, RECOVER.appVersion, RECOVER.aircraftName, RECOVER.aircraftSerial, RECOVER.cameraSerial, RECOVER.rcSerial, RECOVER.batterySerial, DETAILS.totalTime [s], DETAILS.totalDistance [ft], DETAILS.maxHeight [ft], DETAILS.maxHorizontalSpeed [MPH], DETAILS.maxVerticalSpeed [MPH], DETAILS.photoNum, DETAILS.videoTime [s], DETAILS.aircraftName, DETAILS.aircraftSerial, DETAILS.cameraSerial, DETAILS.rcSerial, DETAILS.batterySerial, DETAILS.appName, DETAILS.appType, DETAILS.appVersion, APPGPS.latitude, APPGPS.longitude, APPGPS.accuracy, APP.message, APP.tip, APP.warning
1,6/19/2018,0:08:28,0m 0.7s,0.7,39.96119403,-106.2164536,0,0,0.3,8128,0,0,0,0,0,0,0,0,-2,1,-117.9,242.1,Starting Motors,Other (34),Takeoff (App Auto),14,5,TRUE,,Phantom 4 Pro V2,TRUE,FALSE,,Smart,RC,TRUE,TRUE,FALSE,,,TRUE,,FALSE,FALSE,FALSE,FALSE,FALSE,FALSE,FALSE,FALSE,FALSE,FALSE,0,Follow Yaw,0,0,-117.5,242.5,FALSE,FALSE,FALSE,FALSE,FALSE,FALSE,,TRUE,Normal,,,1024,1024,1024,1024,0,FALSE,FALSE,FALSE,FALSE,FALSE,0,FALSE,FALSE,FALSE,FALSE,91,16.742,5480,6022,16.747,FALSE,4.19,4.192,4.195,4.191,0.005,FALSE,FALSE,63.962,85.9,85.9,85.9,0,35,0,16,10,6124,1570.26,,Idle,0,30,FALSE,10,TRUE,0,Go Home,39.96122432,-106.2162612,54.9,7867.6,1312.3,TRUE,1,1,FALSE,FALSE,FALSE,FALSE,0,FALSE,FALSE,FALSE,Course Lock,98.4,,9.8,Calm,4,Android, 4.2.16,DF061 - Phantom4Pro V2,11VKF5500202NZ,0BDDF5E00100LW,0WGUF3V00100DS,0DQAF5E03201ZU,447.4,4846.3,211.3,30.9,11.6,0,612,DF061 - Phantom4Pro V2,11VKF5500202NZ,0BDDF5E00100LW,0WGUF3V00100DS,0DQAF5E03201ZU,,Android, 4.2.16,,,,Data Recorder File Index is 4.,,
2,6/19/2018,0:08:28,0m 0.8s,0.8,39.96119403,-106.2164536,0,0,0.3,8128,0,0,0,0,0,0,0,0,-1.9,1.1,-117.8,242.2,Starting Motors,Other (34),Takeoff (App Auto),14,5,TRUE,,Phantom 4 Pro V2,TRUE,FALSE,,Smart,RC,TRUE,TRUE,FALSE,,,TRUE,,FALSE,FALSE,FALSE,FALSE,FALSE,FALSE,FALSE,FALSE,FALSE,FALSE,0,Follow Yaw,0,0,-117.5,242.5,FALSE,FALSE,FALSE,FALSE,FALSE,FALSE,,TRUE,Normal,,,1024,1024,1024,1024,0,FALSE,FALSE,FALSE,FALSE,FALSE,0,FALSE,FALSE,FALSE,FALSE,91,16.742,5480,6022,16.747,FALSE,4.19,4.192,4.195,4.191,0.005,FALSE,FALSE,63.962,85.9,85.9,85.9,0,35,0,16,10,6124,1570.26,,Idle,0,30,FALSE,10,TRUE,0,Go Home,39.96122432,-106.2162612,54.9,7867.6,1312.3,TRUE,1,1,FALSE,FALSE,FALSE,FALSE,0,FALSE,FALSE,FALSE,Course Lock,98.4,,9.8,Calm,4,Android, 4.2.16,DF061 - Phantom4Pro V2,11VKF5500202NZ,0BDDF5E00100LW,0WGUF3V00100DS,0DQAF5E03201ZU,447.4,4846.3,211.3,30.9,11.6,0,612,DF061 - Phantom4Pro V2,11VKF5500202NZ,0BDDF5E00100LW,0WGUF3V00100DS,0DQAF5E03201ZU,,Android, 4.2.16,,,,,,
3,6/19/2018,0:08:29,0m 0.9s,0.9,39.96119403,-106.2164536,0,0,0.3,8128,0,0,0,0,0,0,0,0,-1.8,1.1,-117.9,242.1,Starting Motors,Other (34),Takeoff (App Auto),14,5,TRUE,,Phantom 4 Pro V2,TRUE,FALSE,,Smart,RC,TRUE,TRUE,FALSE,,,TRUE,,FALSE,FALSE,FALSE,FALSE,FALSE,FALSE,FALSE,FALSE,FALSE,FALSE,0,Follow Yaw,0,0,-117.5,242.5,FALSE,FALSE,FALSE,FALSE,FALSE,FALSE,,TRUE,Normal,,,1024,1024,1024,1024,0,FALSE,FALSE,FALSE,FALSE,FALSE,0,FALSE,FALSE,FALSE,FALSE,91,16.742,5480,6022,16.747,FALSE,4.19,4.192,4.195,4.191,0.005,FALSE,FALSE,63.962,85.9,85.9,85.9,0,35,0,16,10,6124,1570.26,,Idle,0,30,FALSE,10,TRUE,0,Go Home,39.96122432,-106.2162612,54.9,7867.6,1312.3,TRUE,1,1,FALSE,FALSE,FALSE,FALSE,0,FALSE,FALSE,FALSE,Course Lock,98.4,,9.8,Calm,4,Android, 4.2.16,DF061 - Phantom4Pro V2,11VKF5500202NZ,0BDDF5E00100LW,0WGUF3V00100DS,0DQAF5E03201ZU,447.4,4846.3,211.3,30.9,11.6,0,612,DF061 - Phantom4Pro V2,11VKF5500202NZ,0BDDF5E00100LW,0WGUF3V00100DS,0DQAF5E03201ZU,,Android, 4.2.16,,,,,,
4,6/19/2018,0:08:29,0m 1.0s,1,39.96119404,-106.2164536,0,0,0.3,8128,0,0,0,0,0,0,0,0,-1.9,1.1,-117.8,242.2,Starting Motors,Other (34),Takeoff (App Auto),14,5,TRUE,,Phantom 4 Pro V2,TRUE,FALSE,,Smart,RC,TRUE,TRUE,FALSE,,,TRUE,,FALSE,FALSE,FALSE,FALSE,FALSE,FALSE,FALSE,FALSE,FALSE,FALSE,0,Follow Yaw,0,0,-117.5,242.5,FALSE,FALSE,FALSE,FALSE,FALSE,FALSE,,TRUE,Normal,,,1024,1024,1024,1024,0,FALSE,FALSE,FALSE,FALSE,FALSE,0,FALSE,FALSE,FALSE,FALSE,91,16.742,5480,6022,16.747,FALSE,4.19,4.192,4.195,4.191,0.005,FALSE,FALSE,63.962,85.9,85.9,85.9,0,35,0,16,10,6124,1570.26,,Idle,0,30,FALSE,10,TRUE,0,Go Home,39.96122432,-106.2162612,54.9,7867.6,1312.3,TRUE,1,1,FALSE,FALSE,FALSE,FALSE,0,FALSE,FALSE,FALSE,Course Lock,98.4,,9.8,Calm,4,Android, 4.2.16,DF061 - Phantom4Pro V2,11VKF5500202NZ,0BDDF5E00100LW,0WGUF3V00100DS,0DQAF5E03201ZU,447.4,4846.3,211.3,30.9,11.6,0,612,DF061 - Phantom4Pro V2,11VKF5500202NZ,0BDDF5E00100LW,0WGUF3V00100DS,0DQAF5E03201ZU,,Android, 4.2.16,,,,,,
5,6/19/2018,0:08:29,0m 1.1s,1.1,39.96119404,-106.2164536,0,0,0.3,8128,0,0,0,0,0,0,0,0,-2,1,-117.9,242.1,Starting Motors,Other (34),Takeoff (App Auto),14,5,TRUE,,Phantom 4 Pro V2,TRUE,FALSE,,Smart,RC,TRUE,TRUE,FALSE,,,TRUE,,FALSE,FALSE,FALSE,FALSE,FALSE,FALSE,FALSE,FALSE,FALSE,FALSE,0,Follow Yaw,0,0,-117.5,242.5,FALSE,FALSE,FALSE,FALSE,FALSE,FALSE,,TRUE,Normal,,,1024,1024,1024,1024,0,FALSE,FALSE,FALSE,FALSE,FALSE,0,FALSE,FALSE,FALSE,FALSE,91,16.742,5480,6022,16.747,FALSE,4.19,4.192,4.195,4.191,0.005,FALSE,FALSE,63.962,85.9,85.9,85.9,0,35,0,16,10,6124,1570.26,,Idle,0,30,FALSE,10,TRUE,0,Go Home,39.96122432,-106.2162612,54.9,7867.6,1312.3,TRUE,1,1,FALSE,FALSE,FALSE,FALSE,0,FALSE,FALSE,FALSE,Course Lock,98.4,,9.8,Calm,4,Android, 4.2.16,DF061 - Phantom4Pro V2,11VKF5500202NZ,0BDDF5E00100LW,0WGUF3V00100DS,0DQAF5E03201ZU,447.4,4846.3,211.3,30.9,11.6,0,612,DF061 - Phantom4Pro V2,11VKF5500202NZ,0BDDF5E00100LW,0WGUF3V00100DS,0DQAF5E03201ZU,,Android, 4.2.16,,,,,,
6,6/19/2018,0:08:29,0m 1.2s,1.2,39.96119405,-106.2164536,0,0,0.3,8128,0,0,0,0,0,0,0,0,-1.9,1.1,-117.8,242.2,Starting Motors,Other (34),Takeoff (App Auto),14,5,TRUE,,Phantom 4 Pro V2,TRUE,FALSE,,Smart,RC,TRUE,TRUE,FALSE,,,TRUE,,FALSE,FALSE,FALSE,FALSE,FALSE,FALSE,FALSE,FALSE,FALSE,FALSE,0,Follow Yaw,0,0,-117.5,242.5,FALSE,FALSE,FALSE,FALSE,FALSE,FALSE,,TRUE,Normal,,,1024,1024,1024,1024,0,FALSE,FALSE,FALSE,FALSE,FALSE,0,FALSE,FALSE,FALSE,FALSE,91,16.742,5480,6022,16.747,FALSE,4.19,4.192,4.195,4.191,0.005,FALSE,FALSE,63.962,85.9,85.9,85.9,0,35,0,16,10,6124,1570.26,,Idle,0,30,FALSE,10,TRUE,0,Go Home,39.96122432,-106.2162612,54.9,7867.6,1312.3,TRUE,1,1,FALSE,FALSE,FALSE,FALSE,0,FALSE,FALSE,FALSE,Course Lock,98.4,,9.8,Calm,4,Android, 4.2.16,DF061 - Phantom4Pro V2,11VKF5500202NZ,0BDDF5E00100LW,0WGUF3V00100DS,0DQAF5E03201ZU,447.4,4846.3,211.3,30.9,11.6,0,612,DF061 - Phantom4Pro V2,11VKF5500202NZ,0BDDF5E00100LW,0WGUF3V00100DS,0DQAF5E03201ZU,,Android, 4.2.16,,,,,,
7,6/19/2018,0:08:29,0m 1.3s,1.3,39.96119405,-106.2164535,0,0,0.3,8128,0,0,0,0,0,0,0,0,-1.9,1,-117.9,242.1,Starting Motors,Other (34),Takeoff (App Auto),14,5,TRUE,,Phantom 4 Pro V2,TRUE,FALSE,,Smart,RC,TRUE,TRUE,FALSE,,,TRUE,,FALSE,FALSE,FALSE,FALSE,FALSE,FALSE,FALSE,FALSE,FALSE,FALSE,0,Follow Yaw,0,0,-117.5,242.5,FALSE,FALSE,FALSE,FALSE,FALSE,FALSE,,TRUE,Normal,,,1024,1024,1024,1024,0,FALSE,FALSE,FALSE,FALSE,FALSE,0,FALSE,FALSE,FALSE,FALSE,91,16.742,5480,6022,16.747,FALSE,4.19,4.192,4.195,4.191,0.005,FALSE,FALSE,63.962,85.9,85.9,85.9,0,35,0,16,10,6124,1570.26,,Idle,0,30,FALSE,10,TRUE,0,Go Home,39.96122432,-106.2162612,54.9,7867.6,1312.3,TRUE,1,1,FALSE,FALSE,FALSE,FALSE,0,FALSE,FALSE,FALSE,Course Lock,98.4,,9.8,Calm,4,Android, 4.2.16,DF061 - Phantom4Pro V2,11VKF5500202NZ,0BDDF5E00100LW,0WGUF3V00100DS,0DQAF5E03201ZU,447.4,4846.3,211.3,30.9,11.6,0,612,DF061 - Phantom4Pro V2,11VKF5500202NZ,0BDDF5E00100LW,0WGUF3V00100DS,0DQAF5E03201ZU,,Android, 4.2.16,,,,,,
8,6/19/2018,0:08:29,0m 1.4s,1.4,39.96119404,-106.2164534,0,0,0.3,8128,0,0,0,0,0,0,0,0,-1.7,1.1,-117.8,242.2,Starting Motors,Other (34),Takeoff (App Auto),14,5,TRUE,,Phantom 4 Pro V2,TRUE,FALSE,,Smart,RC,TRUE,TRUE,FALSE,,,TRUE,,FALSE,FALSE,FALSE,FALSE,FALSE,FALSE,FALSE,FALSE,FALSE,FALSE,0,Follow Yaw,0,0,-117.5,242.5,FALSE,FALSE,FALSE,FALSE,FALSE,FALSE,,TRUE,Normal,,,1024,1024,1024,1024,0,FALSE,FALSE,FALSE,FALSE,FALSE,0,FALSE,FALSE,FALSE,FALSE,91,16.742,5480,6022,16.747,FALSE,4.19,4.192,4.195,4.191,0.005,FALSE,FALSE,63.962,85.9,85.9,85.9,0,35,0,16,10,6124,1570.26,,Idle,0,30,FALSE,10,TRUE,0,Go Home,39.96122432,-106.2162612,54.9,7867.6,1312.3,TRUE,1,1,FALSE,FALSE,FALSE,FALSE,0,FALSE,FALSE,FALSE,Course Lock,98.4,,9.8,Calm,4,Android, 4.2.16,DF061 - Phantom4Pro V2,11VKF5500202NZ,0BDDF5E00100LW,0WGUF3V00100DS,0DQAF5E03201ZU,447.4,4846.3,211.3,30.9,11.6,0,612,DF061 - Phantom4Pro V2,11VKF5500202NZ,0BDDF5E00100LW,0WGUF3V00100DS,0DQAF5E03201ZU,,Android, 4.2.16,,,,,,
9,6/19/2018,0:08:29,0m 1.5s,1.5,39.96119405,-106.2164534,0,0,0.3,8128,0,0,0,0,0,0,0,0,-1.6,1,-117.8,242.2,Auto Takeoff,Other (34),Takeoff (App Auto),14,5,TRUE,,Phantom 4 Pro V2,TRUE,FALSE,,Smart,RC,TRUE,TRUE,FALSE,,,TRUE,,FALSE,FALSE,FALSE,FALSE,FALSE,FALSE,FALSE,FALSE,FALSE,FALSE,0,Follow Yaw,0,0,-117.5,242.5,FALSE,FALSE,FALSE,FALSE,FALSE,FALSE,,TRUE,Normal,,,1024,1024,1024,1024,0,FALSE,FALSE,FALSE,FALSE,FALSE,0,FALSE,FALSE,FALSE,FALSE,91,16.742,5480,6022,16.747,FALSE,4.19,4.192,4.195,4.191,0.005,FALSE,FALSE,63.962,85.9,85.9,85.9,0,35,0,16,10,6124,1570.26,,Idle,0,30,FALSE,10,TRUE,0,Go Home,39.96122432,-106.2162612,54.9,7867.6,1312.3,TRUE,1,1,FALSE,FALSE,FALSE,FALSE,0,FALSE,FALSE,FALSE,Course Lock,98.4,,9.8,Calm,4,Android, 4.2.16,DF061 - Phantom4Pro V2,11VKF5500202NZ,0BDDF5E00100LW,0WGUF3V00100DS,0DQAF5E03201ZU,447.4,4846.3,211.3,30.9,11.6,0,612,DF061 - Phantom4Pro V2,11VKF5500202NZ,0BDDF5E00100LW,0WGUF3V00100DS,0DQAF5E03201ZU,,Android, 4.2.16,,,,,,
10,6/19/2018,0:08:29,0m 1.6s,1.6,39.96119402,-106.2164534,0,0,0.3,8128,0,0,0,0,0,0,0,0,-1.3,1,-117.8,242.2,Auto Takeoff,Other (34),Takeoff (App Auto),14,5,TRUE,,Phantom 4 Pro V2,TRUE,FALSE,,Smart,RC,TRUE,TRUE,FALSE,,,TRUE,,FALSE,FALSE,FALSE,FALSE,FALSE,FALSE,FALSE,FALSE,FALSE,FALSE,0,Follow Yaw,0,0,-117.5,242.5,FALSE,FALSE,FALSE,FALSE,FALSE,FALSE,,TRUE,Normal,,,1024,1024,1024,1024,0,FALSE,FALSE,FALSE,FALSE,FALSE,0,FALSE,FALSE,FALSE,FALSE,91,16.742,5480,6022,16.747,FALSE,4.19,4.192,4.195,4.191,0.005,FALSE,FALSE,63.962,85.9,85.9,85.9,0,35,0,16,10,6124,1570.26,,Idle,0,30,FALSE,10,TRUE,0,Go Home,39.96122432,-106.2162612,54.9,7867.6,1312.3,TRUE,1,1,FALSE,FALSE,FALSE,FALSE,0,FALSE,FALSE,FALSE,Course Lock,98.4,,9.8,Calm,4,Android, 4.2.16,DF061 - Phantom4Pro V2,11VKF5500202NZ,0BDDF5E00100LW,0WGUF3V00100DS,0DQAF5E03201ZU,447.4,4846.3,211.3,30.9,11.6,0,612,DF061 - Phantom4Pro V2,11VKF5500202NZ,0BDDF5E00100LW,0WGUF3V00100DS,0DQAF5E03201ZU,,Android, 4.2.16,,,,,,
11,6/19/2018,0:08:29,0m 1.7s,1.7,39.96119398,-106.2164534,0,0,0.3,8128,0,0,0,0,0,0,0,0,-1,1,-117.9,242.1,Auto Takeoff,Other (34),Takeoff (App Auto),14,5,TRUE,,Phantom 4 Pro V2,TRUE,FALSE,,Smart,RC,TRUE,TRUE,FALSE,,,TRUE,,FALSE,FALSE,FALSE,FALSE,FALSE,FALSE,FALSE,FALSE,FALSE,FALSE,0,Follow Yaw,0,0,-117.5,242.5,FALSE,FALSE,FALSE,FALSE,FALSE,FALSE,,TRUE,Normal,,,1024,1024,1024,1024,0,FALSE,FALSE,FALSE,FALSE,FALSE,0,FALSE,FALSE,FALSE,FALSE,91,16.59,5480,6022,16.587,FALSE,4.189,4.179,4.179,4.174,0.015,FALSE,FALSE,63.966,85.9,85.9,85.9,0,35,0,16,10,6126.7,1570.94,,Idle,0,30,FALSE,10,TRUE,0,Go Home,39.96122432,-106.2162612,54.9,7867.6,1312.3,TRUE,1,1,FALSE,FALSE,FALSE,FALSE,0,FALSE,FALSE,FALSE,Course Lock,98.4,,9.8,Calm,4,Android, 4.2.16,DF061 - Phantom4Pro V2,11VKF5500202NZ,0BDDF5E00100LW,0WGUF3V00100DS,0DQAF5E03201ZU,447.4,4846.3,211.3,30.9,11.6,0,612,DF061 - Phantom4Pro V2,11VKF5500202NZ,0BDDF5E00100LW,0WGUF3V00100DS,0DQAF5E03201ZU,,Android, 4.2.16,,,,,,
12,6/19/2018,0:08:30,0m 1.8s,1.8,39.96119392,-106.2164534,0,0,0.3,8128,0,0,0,0,0,0,0,0,-0.9,0.6,-117.8,242.2,Auto Takeoff,Other (34),Takeoff (App Auto),14,5,TRUE,,Phantom 4 Pro V2,TRUE,FALSE,,Smart,RC,TRUE,TRUE,FALSE,,,TRUE,,FALSE,FALSE,FALSE,FALSE,FALSE,FALSE,FALSE,FALSE,FALSE,FALSE,0,Follow Yaw,0,0,-117.5,242.5,FALSE,FALSE,FALSE,FALSE,FALSE,FALSE,,TRUE,Normal,,,1024,1024,1024,1024,0,FALSE,FALSE,FALSE,FALSE,FALSE,0,FALSE,FALSE,FALSE,FALSE,91,16.59,5480,6022,16.587,FALSE,4.189,4.179,4.179,4.174,0.015,FALSE,FALSE,63.966,85.9,85.9,85.9,0,35,0,16,10,6126.7,1570.94,,Idle,0,30,FALSE,10,TRUE,0,Go Home,39.96122432,-106.2162612,54.9,7867.6,1312.3,TRUE,1,1,FALSE,FALSE,FALSE,FALSE,0,FALSE,FALSE,FALSE,Course Lock,98.4,,9.8,Calm,4,Android, 4.2.16,DF061 - Phantom4Pro V2,11VKF5500202NZ,0BDDF5E00100LW,0WGUF3V00100DS,0DQAF5E03201ZU,447.4,4846.3,211.3,30.9,11.6,0,612,DF061 - Phantom4Pro V2,11VKF5500202NZ,0BDDF5E00100LW,0WGUF3V00100DS,0DQAF5E03201ZU,,Android, 4.2.16,,,,,,
13,6/19/2018,0:08:30,0m 1.9s,1.9,39.96119386,-106.2164534,0,0,0.3,8128,0,0,0,0,0,0,0,0,-0.3,0.4,-117.8,242.2,Auto Takeoff,Other (34),Takeoff (App Auto),14,5,TRUE,,Phantom 4 Pro V2,TRUE,FALSE,,Smart,RC,TRUE,TRUE,FALSE,,,TRUE,,FALSE,FALSE,FALSE,FALSE,FALSE,FALSE,FALSE,FALSE,FALSE,FALSE,0,Follow Yaw,0,0,-117.5,242.5,FALSE,FALSE,FALSE,FALSE,FALSE,FALSE,,TRUE,Normal,,,1024,1024,1024,1024,0,FALSE,FALSE,FALSE,FALSE,FALSE,0,FALSE,FALSE,FALSE,FALSE,91,16.59,5480,6022,16.587,FALSE,4.189,4.179,4.179,4.174,0.015,FALSE,FALSE,63.966,85.9,85.9,85.9,0,35,0,16,10,6126.7,1570.94,,Idle,0,30,FALSE,10,TRUE,0,Go Home,39.96122432,-106.2162612,54.9,7867.6,1312.3,TRUE,1,1,FALSE,FALSE,FALSE,FALSE,0,FALSE,FALSE,FALSE,Course Lock,98.4,,9.8,Calm,4,Android, 4.2.16,DF061 - Phantom4Pro V2,11VKF5500202NZ,0BDDF5E00100LW,0WGUF3V00100DS,0DQAF5E03201ZU,447.4,4846.3,211.3,30.9,11.6,0,612,DF061 - Phantom4Pro V2,11VKF5500202NZ,0BDDF5E00100LW,0WGUF3V00100DS,0DQAF5E03201ZU,,Android, 4.2.16,,,,,,
14,6/19/2018,0:08:30,0m 2.0s,2,39.96119384,-106.2164534,0,0,0.3,8128,0,0,0,0,0,0,0,0,0.8,0,-117.9,242.1,Auto Takeoff,Other (34),Takeoff (App Auto),14,5,TRUE,,Phantom 4 Pro V2,TRUE,FALSE,,Smart,RC,TRUE,TRUE,FALSE,,,TRUE,,FALSE,FALSE,FALSE,FALSE,FALSE,FALSE,FALSE,FALSE,FALSE,FALSE,0,Follow Yaw,0,0,-117.5,242.5,FALSE,FALSE,FALSE,FALSE,FALSE,FALSE,,TRUE,Normal,,,1024,1024,1024,1024,0,FALSE,FALSE,FALSE,FALSE,FALSE,0,FALSE,FALSE,FALSE,FALSE,91,16.59,5480,6022,16.587,FALSE,4.189,4.179,4.179,4.174,0.015,FALSE,FALSE,63.966,85.9,85.9,85.9,0,35,0,16,10,6126.7,1570.94,,Idle,0,30,FALSE,10,TRUE,0,Go Home,39.96122432,-106.2162612,54.9,7867.6,1312.3,TRUE,1,1,FALSE,FALSE,FALSE,FALSE,0,FALSE,FALSE,FALSE,Course Lock,98.4,,9.8,Calm,4,Android, 4.2.16,DF061 - Phantom4Pro V2,11VKF5500202NZ,0BDDF5E00100LW,0WGUF3V00100DS,0DQAF5E03201ZU,447.4,4846.3,211.3,30.9,11.6,0,612,DF061 - Phantom4Pro V2,11VKF5500202NZ,0BDDF5E00100LW,0WGUF3V00100DS,0DQAF5E03201ZU,,Android, 4.2.16,,,,,,
15,6/19/2018,0:08:30,0m 2.1s,2.1,39.96119386,-106.2164533,0,0,0.3,8128,0,0,0,0,0.2,0.2,0,0,4.3,-0.8,-117.9,242.1,Auto Takeoff,Other (34),Takeoff (App Auto),14,5,TRUE,,Phantom 4 Pro V2,TRUE,FALSE,,Smart,RC,TRUE,TRUE,FALSE,,,TRUE,,FALSE,FALSE,FALSE,FALSE,FALSE,FALSE,FALSE,FALSE,FALSE,FALSE,0,Follow Yaw,0,0,-117.5,242.5,FALSE,FALSE,FALSE,FALSE,FALSE,FALSE,,TRUE,Normal,,,1024,1024,1024,1024,0,FALSE,FALSE,FALSE,FALSE,FALSE,0,FALSE,FALSE,FALSE,FALSE,91,16.59,5480,6022,16.587,FALSE,4.189,4.179,4.179,4.174,0.015,FALSE,FALSE,63.966,85.9,85.9,85.9,0,35,0,16,10,6126.7,1570.94,,Idle,0,30,FALSE,10,TRUE,0,Go Home,39.96122432,-106.2162612,54.9,7867.6,1312.3,TRUE,1,1,FALSE,FALSE,FALSE,FALSE,0,FALSE,FALSE,FALSE,Course Lock,98.4,,9.8,Calm,4,Android, 4.2.16,DF061 - Phantom4Pro V2,11VKF5500202NZ,0BDDF5E00100LW,0WGUF3V00100DS,0DQAF5E03201ZU,447.4,4846.3,211.3,30.9,11.6,0,612,DF061 - Phantom4Pro V2,11VKF5500202NZ,0BDDF5E00100LW,0WGUF3V00100DS,0DQAF5E03201ZU,,Android, 4.2.16,,,,,,
16,6/19/2018,0:08:30,0m 2.2s,2.2,39.96119392,-106.2164531,0,0,0.3,8128,0,0,0,0,0.5,0.5,-0.2,0,10.3,-3.1,-117.2,242.8,Auto Takeoff,Other (34),Takeoff (App Auto),14,5,TRUE,,Phantom 4 Pro V2,TRUE,FALSE,,Smart,RC,TRUE,TRUE,FALSE,,,TRUE,,FALSE,FALSE,FALSE,FALSE,FALSE,FALSE,FALSE,FALSE,FALSE,FALSE,0,Follow Yaw,0,0,-117.5,242.5,FALSE,FALSE,FALSE,FALSE,FALSE,FALSE,,TRUE,Normal,,,1024,1024,1024,1024,0,FALSE,FALSE,FALSE,FALSE,FALSE,0,FALSE,FALSE,FALSE,FALSE,91,16.59,5480,6022,16.587,FALSE,4.189,4.179,4.179,4.174,0.015,FALSE,FALSE,63.966,85.9,85.9,85.9,0,35,0,16,10,6126.7,1570.94,,Idle,0,30,FALSE,10,TRUE,0,Go Home,39.96122432,-106.2162612,54.8,7867.6,1312.3,TRUE,1,1,FALSE,FALSE,FALSE,FALSE,0,FALSE,FALSE,FALSE,Course Lock,98.4,,9.8,Calm,4,Android, 4.2.16,DF061 - Phantom4Pro V2,11VKF5500202NZ,0BDDF5E00100LW,0WGUF3V00100DS,0DQAF5E03201ZU,447.4,4846.3,211.3,30.9,11.6,0,612,DF061 - Phantom4Pro V2,11VKF5500202NZ,0BDDF5E00100LW,0WGUF3V00100DS,0DQAF5E03201ZU,,Android, 4.2.16,,,,,,
17,6/19/2018,0:08:30,0m 2.3s,2.3,39.96119398,-106.2164526,0,0,0.7,8128,1.5,1.5,0,0,1.1,1.1,-0.5,0,9,-3.9,-116.5,243.5,Auto Takeoff,Other (34),Takeoff (App Auto),14,5,TRUE,,Phantom 4 Pro V2,TRUE,FALSE,,Smart,RC,FALSE,TRUE,FALSE,,,TRUE,,FALSE,FALSE,FALSE,FALSE,FALSE,FALSE,FALSE,FALSE,FALSE,FALSE,0,Follow Yaw,0,0,-117.4,242.6,FALSE,FALSE,FALSE,FALSE,FALSE,FALSE,,TRUE,Normal,,,1024,1024,1024,1024,0,FALSE,FALSE,FALSE,FALSE,FALSE,0,FALSE,FALSE,FALSE,FALSE,91,16.59,5480,6022,16.587,FALSE,4.189,4.179,4.179,4.174,0.015,FALSE,FALSE,63.966,85.9,85.9,85.9,0,35,0,16,10,6126.7,1570.94,,Idle,0,30,FALSE,10,TRUE,0,Go Home,39.96122432,-106.2162612,54.6,7867.6,1312.3,TRUE,1,1,FALSE,FALSE,FALSE,FALSE,0,FALSE,FALSE,FALSE,Course Lock,98.4,,9.8,Calm,4,Android, 4.2.16,DF061 - Phantom4Pro V2,11VKF5500202NZ,0BDDF5E00100LW,0WGUF3V00100DS,0DQAF5E03201ZU,447.4,4846.3,211.3,30.9,11.6,0,612,DF061 - Phantom4Pro V2,11VKF5500202NZ,0BDDF5E00100LW,0WGUF3V00100DS,0DQAF5E03201ZU,,Android, 4.2.16,,,,,,
18,6/19/2018,0:08:30,0m 2.4s,2.4,39.96119402,-106.2164519,0,0,0.7,8128,1.5,1.5,0,0,1.6,1.6,-0.7,0,-0.4,-0.3,-116.3,243.7,Auto Takeoff,Other (34),Takeoff (App Auto),14,5,TRUE,,Phantom 4 Pro V2,TRUE,FALSE,,Smart,RC,FALSE,TRUE,FALSE,,,TRUE,,FALSE,FALSE,FALSE,FALSE,FALSE,FALSE,FALSE,FALSE,FALSE,FALSE,0,Follow Yaw,0,0,-117.4,242.6,FALSE,FALSE,FALSE,FALSE,FALSE,FALSE,,TRUE,Normal,,,1024,1024,1024,1024,0,FALSE,FALSE,FALSE,FALSE,FALSE,0,FALSE,FALSE,FALSE,FALSE,91,16.59,5480,6022,16.587,FALSE,4.189,4.179,4.179,4.174,0.015,FALSE,FALSE,63.966,85.9,85.9,85.9,0,35,0,16,10,6126.7,1570.94,,Idle,0,30,FALSE,10,TRUE,0,Go Home,39.96122432,-106.2162612,54.4,7867.6,1312.3,TRUE,1,1,FALSE,FALSE,FALSE,FALSE,0,FALSE,FALSE,FALSE,Course Lock,98.4,,9.8,Calm,4,Android, 4.2.16,DF061 - Phantom4Pro V2,11VKF5500202NZ,0BDDF5E00100LW,0WGUF3V00100DS,0DQAF5E03201ZU,447.4,4846.3,211.3,30.9,11.6,0,612,DF061 - Phantom4Pro V2,11VKF5500202NZ,0BDDF5E00100LW,0WGUF3V00100DS,0DQAF5E03201ZU,,Android, 4.2.16,,,,,,
19,6/19/2018,0:08:30,0m 2.5s,2.5,39.96119404,-106.216451,0,0,0.7,8128,1.5,1.5,0,0,1.6,1.6,-0.7,0,-4.8,3.1,-116.9,243.1,Auto Takeoff,Other (34),Takeoff (App Auto),14,5,TRUE,,Phantom 4 Pro V2,TRUE,FALSE,,Smart,RC,FALSE,TRUE,FALSE,,,TRUE,,FALSE,FALSE,FALSE,FALSE,FALSE,FALSE,FALSE,FALSE,FALSE,FALSE,0,Follow Yaw,0,0,-117.4,242.6,FALSE,FALSE,FALSE,FALSE,FALSE,FALSE,,TRUE,Normal,,,1024,1024,1024,1024,0,FALSE,FALSE,FALSE,FALSE,FALSE,0,FALSE,FALSE,FALSE,FALSE,91,16.59,5480,6022,16.587,FALSE,4.189,4.179,4.179,4.174,0.015,FALSE,FALSE,63.966,85.9,85.9,85.9,0,35,0,16,10,6126.7,1570.94,,Idle,0,30,FALSE,10,TRUE,0,Go Home,39.96122432,-106.2162612,54.2,7867.6,1312.3,TRUE,1,1,FALSE,FALSE,FALSE,FALSE,0,FALSE,FALSE,FALSE,Course Lock,98.4,,9.8,Calm,4,Android, 4.2.16,DF061 - Phantom4Pro V2,11VKF5500202NZ,0BDDF5E00100LW,0WGUF3V00100DS,0DQAF5E03201ZU,447.4,4846.3,211.3,30.9,11.6,0,612,DF061 - Phantom4Pro V2,11VKF5500202NZ,0BDDF5E00100LW,0WGUF3V00100DS,0DQAF5E03201ZU,,Android, 4.2.16,,,,,,
20,6/19/2018,0:08:30,0m 2.6s,2.6,39.96119407,-106.21645,0.3,0.3,1,8128,2.1,2.1,0,0,1.6,1.6,-0.9,0,-6.6,3.5,-117,243,Auto Takeoff,Other (34),Takeoff (App Auto),14,5,TRUE,,Phantom 4 Pro V2,TRUE,FALSE,,Smart,RC,FALSE,TRUE,FALSE,,,TRUE,,FALSE,FALSE,FALSE,FALSE,FALSE,FALSE,FALSE,FALSE,FALSE,FALSE,0,Follow Yaw,0,0,-117.4,242.6,FALSE,FALSE,FALSE,FALSE,FALSE,FALSE,,TRUE,Normal,,,1024,1024,1024,1024,0,FALSE,FALSE,FALSE,FALSE,FALSE,0,FALSE,FALSE,FALSE,FALSE,91,16.59,5480,6022,16.587,FALSE,4.189,4.179,4.179,4.174,0.015,FALSE,FALSE,63.966,85.9,85.9,85.9,0,35,0,16,10,6126.7,1570.94,,Idle,0,30,FALSE,10,TRUE,0,Go Home,39.96122432,-106.2162612,53.9,7867.6,1312.3,TRUE,1,1,FALSE,FALSE,FALSE,FALSE,0,FALSE,FALSE,FALSE,Course Lock,98.4,,9.8,Calm,4,Android, 4.2.16,DF061 - Phantom4Pro V2,11VKF5500202NZ,0BDDF5E00100LW,0WGUF3V00100DS,0DQAF5E03201ZU,447.4,4846.3,211.3,30.9,11.6,0,612,DF061 - Phantom4Pro V2,11VKF5500202NZ,0BDDF5E00100LW,0WGUF3V00100DS,0DQAF5E03201ZU,,Android, 4.2.16,,,,,,
21,6/19/2018,0:08:30,0m 2.7s,2.7,39.96119408,-106.2164491,0.3,0.3,1,8128,2.1,2.1,0,0,1.6,1.6,-0.9,0,-6.9,3.5,-117,243,Auto Takeoff,Other (34),Takeoff (App Auto),14,5,TRUE,,Phantom 4 Pro V2,TRUE,FALSE,,Smart,RC,FALSE,TRUE,FALSE,,,TRUE,,FALSE,FALSE,FALSE,FALSE,FALSE,FALSE,FALSE,FALSE,FALSE,FALSE,0,Follow Yaw,0,0,-117.4,242.6,FALSE,FALSE,FALSE,FALSE,FALSE,FALSE,,TRUE,Normal,,,1024,1024,1024,1024,0,FALSE,FALSE,FALSE,FALSE,FALSE,0,FALSE,FALSE,FALSE,FALSE,91,16.581,5480,6022,16.584,FALSE,4.17,4.181,4.178,4.175,0.015,FALSE,FALSE,61.496,85.9,85.9,85.9,0,0,0,15,10,6321.8,1620.98,,Idle,0,30,FALSE,10,TRUE,0,Go Home,39.96119394,-106.2164529,1.1,7867.6,1312.3,TRUE,1,1,FALSE,FALSE,FALSE,FALSE,0,FALSE,FALSE,FALSE,Course Lock,98.4,,9.8,Calm,4,Android, 4.2.16,DF061 - Phantom4Pro V2,11VKF5500202NZ,0BDDF5E00100LW,0WGUF3V00100DS,0DQAF5E03201ZU,447.4,4846.3,211.3,30.9,11.6,0,612,DF061 - Phantom4Pro V2,11VKF5500202NZ,0BDDF5E00100LW,0WGUF3V00100DS,0DQAF5E03201ZU,,Android, 4.2.16,,,,Home Point Updated.,,
22,6/19/2018,0:08:30,0m 2.8s,2.8,39.96119409,-106.2164483,0.7,0.7,1,8129,1.5,2.1,0,0,1.3,1.6,-0.9,0,-7.8,4.3,-116.8,243.2,Auto Takeoff,Other (34),Takeoff (App Auto),14,5,TRUE,,Phantom 4 Pro V2,TRUE,FALSE,,Smart,RC,FALSE,TRUE,FALSE,,,TRUE,,FALSE,FALSE,FALSE,FALSE,FALSE,FALSE,FALSE,FALSE,FALSE,FALSE,0,Follow Yaw,0,0,-117.4,242.6,FALSE,FALSE,FALSE,FALSE,FALSE,FALSE,,TRUE,Normal,,,1024,1024,1024,1024,0,FALSE,FALSE,FALSE,FALSE,FALSE,0,FALSE,FALSE,FALSE,FALSE,91,16.581,5480,6022,16.584,FALSE,4.17,4.181,4.178,4.175,0.015,FALSE,FALSE,61.496,85.9,85.9,85.9,0,0,0,15,10,6321.8,1620.98,,Idle,0,30,FALSE,10,TRUE,0,Go Home,39.96119394,-106.2164529,1.3,7867.6,1312.3,TRUE,1,1,FALSE,FALSE,FALSE,FALSE,0,FALSE,FALSE,FALSE,Course Lock,98.4,,9.8,Calm,4,Android, 4.2.16,DF061 - Phantom4Pro V2,11VKF5500202NZ,0BDDF5E00100LW,0WGUF3V00100DS,0DQAF5E03201ZU,447.4,4846.3,211.3,30.9,11.6,0,612,DF061 - Phantom4Pro V2,11VKF5500202NZ,0BDDF5E00100LW,0WGUF3V00100DS,0DQAF5E03201ZU,,Android, 4.2.16,,,,,,
23,6/19/2018,0:08:31,0m 2.9s,2.9,39.9611941,-106.2164474,0.7,0.7,1.3,8129,1.5,2.1,0,0,1.1,1.6,-0.9,0,-7.6,3.4,-116.7,243.3,Auto Takeoff,Other (34),Takeoff (App Auto),13,4,TRUE,,Phantom 4 Pro V2,TRUE,FALSE,,Smart,RC,FALSE,TRUE,FALSE,,,TRUE,,FALSE,FALSE,FALSE,FALSE,FALSE,FALSE,FALSE,FALSE,FALSE,FALSE,0,Follow Yaw,0,0,-117.3,242.7,FALSE,FALSE,FALSE,FALSE,FALSE,FALSE,,TRUE,Normal,,,1024,1024,1024,1024,0,FALSE,FALSE,FALSE,FALSE,FALSE,0,FALSE,FALSE,FALSE,FALSE,91,16.581,5480,6022,16.584,FALSE,4.17,4.181,4.178,4.175,0.015,FALSE,FALSE,61.496,85.9,85.9,85.9,0,0,0,15,10,6321.8,1620.98,,Idle,0,30,FALSE,10,TRUE,0,Go Home,39.96119394,-106.2164529,1.6,7867.6,1312.3,TRUE,1,1,FALSE,FALSE,FALSE,FALSE,0,FALSE,FALSE,FALSE,Course Lock,98.4,,9.8,Calm,4,Android, 4.2.16,DF061 - Phantom4Pro V2,11VKF5500202NZ,0BDDF5E00100LW,0WGUF3V00100DS,0DQAF5E03201ZU,447.4,4846.3,211.3,30.9,11.6,0,612,DF061 - Phantom4Pro V2,11VKF5500202NZ,0BDDF5E00100LW,0WGUF3V00100DS,0DQAF5E03201ZU,,Android, 4.2.16,,,,,,
24,6/19/2018,0:08:31,0m 3.0s,3,39.96119404,-106.2164467,0.7,0.7,1.3,8129,1.5,2.1,0,0,1.1,1.6,-0.9,0,-7.5,3.3,-116.6,243.4,Auto Takeoff,Other (34),Takeoff (App Auto),13,4,TRUE,,Phantom 4 Pro V2,TRUE,FALSE,,Smart,RC,FALSE,TRUE,FALSE,,,TRUE,,FALSE,FALSE,FALSE,FALSE,FALSE,FALSE,FALSE,FALSE,FALSE,FALSE,0,Follow Yaw,0,0,-117.3,242.7,FALSE,FALSE,FALSE,FALSE,FALSE,FALSE,,TRUE,Normal,,,1024,1024,1024,1024,0,FALSE,FALSE,FALSE,FALSE,FALSE,0,FALSE,FALSE,FALSE,FALSE,91,16.581,5480,6022,16.584,FALSE,4.17,4.181,4.178,4.175,0.015,FALSE,FALSE,61.496,85.9,85.9,85.9,0,0,0,15,10,6321.8,1620.98,,Idle,0,30,FALSE,10,TRUE,0,Go Home,39.96119394,-106.2164529,1.8,7867.6,1312.3,TRUE,1,1,FALSE,FALSE,FALSE,FALSE,0,FALSE,FALSE,FALSE,Course Lock,98.4,,9.8,Calm,4,Android, 4.2.16,DF061 - Phantom4Pro V2,11VKF5500202NZ,0BDDF5E00100LW,0WGUF3V00100DS,0DQAF5E03201ZU,447.4,4846.3,211.3,30.9,11.6,0,612,DF061 - Phantom4Pro V2,11VKF5500202NZ,0BDDF5E00100LW,0WGUF3V00100DS,0DQAF5E03201ZU,,Android, 4.2.16,,,,,,
25,6/19/2018,0:08:31,0m 3.1s,3.1,39.96119375,-106.2164458,1,1,1.6,8129,1.8,2.1,0,0,0.9,1.6,-1.1,0,-6.4,4.7,-116.2,243.8,Auto Takeoff,Other (34),Takeoff (App Auto),12,4,TRUE,,Phantom 4 Pro V2,TRUE,FALSE,,Smart,RC,FALSE,TRUE,FALSE,,,TRUE,,FALSE,FALSE,FALSE,FALSE,FALSE,FALSE,FALSE,FALSE,FALSE,FALSE,0,Follow Yaw,0,0,-117.3,242.7,FALSE,FALSE,FALSE,FALSE,FALSE,FALSE,,TRUE,Normal,,,1024,1024,1024,1024,0,FALSE,FALSE,FALSE,FALSE,FALSE,0,FALSE,FALSE,FALSE,FALSE,91,16.581,5480,6022,16.584,FALSE,4.17,4.181,4.178,4.175,0.015,FALSE,FALSE,61.496,85.9,85.9,85.9,0,0,0,15,10,6321.8,1620.98,,Idle,0,30,FALSE,10,TRUE,0,Go Home,39.96119394,-106.2164529,2,7867.6,1312.3,TRUE,1,1,FALSE,FALSE,FALSE,FALSE,0,FALSE,FALSE,FALSE,Course Lock,98.4,,9.8,Calm,4,Android, 4.2.16,DF061 - Phantom4Pro V2,11VKF5500202NZ,0BDDF5E00100LW,0WGUF3V00100DS,0DQAF5E03201ZU,447.4,4846.3,211.3,30.9,11.6,0,612,DF061 - Phantom4Pro V2,11VKF5500202NZ,0BDDF5E00100LW,0WGUF3V00100DS,0DQAF5E03201ZU,,Android, 4.2.16,,,,,,
26,6/19/2018,0:08:31,0m 3.2s,3.2,39.96119372,-106.2164453,1,1,1.6,8129,1.5,2.1,0,0,0.9,1.6,-1.1,0,-6.8,3.8,-116.1,243.9,Auto Takeoff,Other (34),Takeoff (App Auto),12,4,TRUE,,Phantom 4 Pro V2,TRUE,FALSE,,Smart,RC,FALSE,TRUE,FALSE,,,TRUE,,FALSE,FALSE,FALSE,FALSE,FALSE,FALSE,FALSE,FALSE,FALSE,FALSE,0,Follow Yaw,0,0,-117.2,242.8,FALSE,FALSE,FALSE,FALSE,FALSE,FALSE,,TRUE,Normal,,,1024,1024,1024,1024,0,FALSE,FALSE,FALSE,FALSE,FALSE,0,FALSE,FALSE,FALSE,FALSE,91,16.581,5480,6022,16.584,FALSE,4.17,4.181,4.178,4.175,0.015,FALSE,FALSE,61.496,85.9,85.9,85.9,0,0,0,15,10,6321.8,1620.98,,Idle,0,30,FALSE,10,TRUE,0,Go Home,39.96119394,-106.2164529,2.2,7867.6,1312.3,TRUE,1,1,FALSE,FALSE,FALSE,FALSE,0,FALSE,FALSE,FALSE,Course Lock,98.4,,9.8,Calm,4,Android, 4.2.16,DF061 - Phantom4Pro V2,11VKF5500202NZ,0BDDF5E00100LW,0WGUF3V00100DS,0DQAF5E03201ZU,447.4,4846.3,211.3,30.9,11.6,0,612,DF061 - Phantom4Pro V2,11VKF5500202NZ,0BDDF5E00100LW,0WGUF3V00100DS,0DQAF5E03201ZU,,Android, 4.2.16,,,,,,
27,6/19/2018,0:08:31,0m 3.3s,3.3,39.96119373,-106.2164448,1.3,1.3,2,8129,1.5,2.1,0,0,0.7,1.6,-1.1,0,-7.9,2.7,-116,244,Auto Takeoff,Other (34),Takeoff (App Auto),14,4,TRUE,,Phantom 4 Pro V2,TRUE,FALSE,,Smart,RC,FALSE,TRUE,FALSE,,,TRUE,,FALSE,FALSE,FALSE,FALSE,FALSE,FALSE,FALSE,FALSE,FALSE,FALSE,0,Follow Yaw,0,0,-117.1,242.9,FALSE,FALSE,FALSE,FALSE,FALSE,FALSE,,TRUE,Normal,,,1024,1024,1024,1024,0,FALSE,FALSE,FALSE,FALSE,FALSE,0,FALSE,FALSE,FALSE,FALSE,91,16.581,5480,6022,16.584,FALSE,4.17,4.181,4.178,4.175,0.015,FALSE,FALSE,61.496,85.9,85.9,85.9,0,0,0,15,10,6321.8,1620.98,,Idle,0,30,FALSE,10,TRUE,0,Go Home,39.96119394,-106.2164529,2.3,7867.6,1312.3,TRUE,1,1,FALSE,FALSE,FALSE,FALSE,0,FALSE,FALSE,FALSE,Course Lock,98.4,,9.8,Calm,4,Android, 4.2.16,DF061 - Phantom4Pro V2,11VKF5500202NZ,0BDDF5E00100LW,0WGUF3V00100DS,0DQAF5E03201ZU,447.4,4846.3,211.3,30.9,11.6,0,612,DF061 - Phantom4Pro V2,11VKF5500202NZ,0BDDF5E00100LW,0WGUF3V00100DS,0DQAF5E03201ZU,,Android, 4.2.16,,,,,,
28,6/19/2018,0:08:31,0m 3.4s,3.4,39.96119378,-106.2164445,1.6,1.6,2,8130,1.1,2.1,0,0,0.7,1.6,-1.1,0,-7.7,0.9,-116.2,243.8,Auto Takeoff,Other (34),Takeoff (App Auto),14,4,TRUE,,Phantom 4 Pro V2,TRUE,FALSE,,Smart,RC,FALSE,TRUE,FALSE,,,TRUE,,FALSE,FALSE,FALSE,FALSE,FALSE,FALSE,FALSE,FALSE,FALSE,FALSE,0,Follow Yaw,0,0,-117.1,242.9,FALSE,FALSE,FALSE,FALSE,FALSE,FALSE,,TRUE,Normal,,,1024,1024,1024,1024,0,FALSE,FALSE,FALSE,FALSE,FALSE,0,FALSE,FALSE,FALSE,FALSE,91,16.581,5480,6022,16.584,FALSE,4.17,4.181,4.178,4.175,0.015,FALSE,FALSE,61.496,85.9,85.9,85.9,0,0,0,15,10,6321.8,1620.98,,Idle,0,30,FALSE,10,TRUE,0,Go Home,39.96119394,-106.2164529,2.4,7867.6,1312.3,TRUE,1,1,FALSE,FALSE,FALSE,FALSE,0,FALSE,FALSE,FALSE,Course Lock,98.4,,9.8,Calm,4,Android, 4.2.16,DF061 - Phantom4Pro V2,11VKF5500202NZ,0BDDF5E00100LW,0WGUF3V00100DS,0DQAF5E03201ZU,447.4,4846.3,211.3,30.9,11.6,0,612,DF061 - Phantom4Pro V2,11VKF5500202NZ,0BDDF5E00100LW,0WGUF3V00100DS,0DQAF5E03201ZU,,Android, 4.2.16,,,,,,
29,6/19/2018,0:08:31,0m 3.5s,3.5,39.96119382,-106.2164445,1.6,1.6,2.3,8130,0,2.1,0,0,0.7,1.6,-1.1,0,-5.9,1.6,-116.2,243.8,Auto Takeoff,Other (34),Takeoff (App Auto),14,4,TRUE,,Phantom 4 Pro V2,TRUE,FALSE,,Smart,RC,FALSE,TRUE,FALSE,,,TRUE,,FALSE,FALSE,FALSE,FALSE,FALSE,FALSE,FALSE,FALSE,FALSE,FALSE,0,Follow Yaw,0,0,-117.1,242.9,FALSE,FALSE,FALSE,FALSE,FALSE,FALSE,,TRUE,Normal,,,1024,1024,1024,1024,0,FALSE,FALSE,FALSE,FALSE,FALSE,0,FALSE,FALSE,FALSE,FALSE,91,16.581,5480,6022,16.584,FALSE,4.17,4.181,4.178,4.175,0.015,FALSE,FALSE,61.496,85.9,85.9,85.9,0,0,0,15,10,6321.8,1620.98,,Idle,0,30,FALSE,10,TRUE,0,Go Home,39.96119394,-106.2164529,2.3,7867.6,1312.3,TRUE,1,1,FALSE,FALSE,FALSE,FALSE,0,FALSE,FALSE,FALSE,Course Lock,98.4,,9.8,Calm,4,Android, 4.2.16,DF061 - Phantom4Pro V2,11VKF5500202NZ,0BDDF5E00100LW,0WGUF3V00100DS,0DQAF5E03201ZU,447.4,4846.3,211.3,30.9,11.6,0,612,DF061 - Phantom4Pro V2,11VKF5500202NZ,0BDDF5E00100LW,0WGUF3V00100DS,0DQAF5E03201ZU,,Android, 4.2.16,,,,,,
30,6/19/2018,0:08:31,0m 3.6s,3.6,39.96119376,-106.2164441,2,2,2.6,8130,0,2.1,-0.2,0,0.9,1.6,-1.1,0,-5.4,2.9,-116.3,243.7,Auto Takeoff,Other (34),Takeoff (App Auto),14,4,TRUE,,Phantom 4 Pro V2,TRUE,FALSE,,Smart,RC,FALSE,TRUE,FALSE,,,TRUE,,FALSE,FALSE,FALSE,FALSE,FALSE,FALSE,FALSE,FALSE,FALSE,FALSE,0,Follow Yaw,0,0,-117,243,FALSE,FALSE,FALSE,FALSE,FALSE,FALSE,,TRUE,Normal,,,1024,1024,1024,1024,0,FALSE,FALSE,FALSE,FALSE,FALSE,0,FALSE,FALSE,FALSE,FALSE,91,16.581,5480,6022,16.584,FALSE,4.17,4.181,4.178,4.175,0.015,FALSE,FALSE,61.496,85.9,85.9,85.9,0,0,0,15,10,6321.8,1620.98,,Idle,0,30,FALSE,10,TRUE,0,Go Home,39.96119394,-106.2164529,2.5,7867.6,1312.3,TRUE,1,1,FALSE,FALSE,FALSE,FALSE,0,FALSE,FALSE,FALSE,Course Lock,98.4,,9.8,Calm,4,Android, 4.2.16,DF061 - Phantom4Pro V2,11VKF5500202NZ,0BDDF5E00100LW,0WGUF3V00100DS,0DQAF5E03201ZU,447.4,4846.3,211.3,30.9,11.6,0,612,DF061 - Phantom4Pro V2,11VKF5500202NZ,0BDDF5E00100LW,0WGUF3V00100DS,0DQAF5E03201ZU,,Android, 4.2.16,,,,,,
31,6/19/2018,0:08:31,0m 3.7s,3.7,39.96119365,-106.2164436,2,2,2.6,8130,0,2.1,-0.2,0,0.7,1.6,-0.9,0,-6,3.7,-116.4,243.6,Auto Takeoff,Other (34),Takeoff (App Auto),14,4,TRUE,,Phantom 4 Pro V2,TRUE,FALSE,,Smart,RC,FALSE,TRUE,FALSE,,,TRUE,,FALSE,FALSE,FALSE,FALSE,FALSE,FALSE,FALSE,FALSE,FALSE,FALSE,0,Follow Yaw,0,0,-117,243,FALSE,FALSE,FALSE,FALSE,FALSE,FALSE,,TRUE,Normal,,,1024,1024,1024,1024,0,FALSE,FALSE,FALSE,FALSE,FALSE,0,FALSE,FALSE,FALSE,FALSE,91,16.444,5480,6022,16.441,FALSE,4.17,4.181,4.178,4.175,0.015,FALSE,FALSE,52.82,85.9,85.9,85.9,0,1,0,15,10,7691,1972.04,,Idle,0,30,FALSE,10,TRUE,0,Go Home,39.96119394,-106.2164529,2.6,7867.6,1312.3,TRUE,1,1,FALSE,FALSE,FALSE,FALSE,0,FALSE,FALSE,FALSE,Course Lock,98.4,,9.8,Calm,4,Android, 4.2.16,DF061 - Phantom4Pro V2,11VKF5500202NZ,0BDDF5E00100LW,0WGUF3V00100DS,0DQAF5E03201ZU,447.4,4846.3,211.3,30.9,11.6,0,612,DF061 - Phantom4Pro V2,11VKF5500202NZ,0BDDF5E00100LW,0WGUF3V00100DS,0DQAF5E03201ZU,,Android, 4.2.16,,,,,,
32,6/19/2018,0:08:31,0m 3.8s,3.8,39.96119356,-106.2164431,2.3,2.3,2.6,8130,1.5,2.1,-0.2,0,0.9,1.6,-0.9,0,-5.6,4.5,-116.4,243.6,Auto Takeoff,Other (34),Takeoff (App Auto),14,4,TRUE,,Phantom 4 Pro V2,TRUE,FALSE,,Smart,RC,FALSE,TRUE,FALSE,,,TRUE,,FALSE,FALSE,FALSE,FALSE,FALSE,FALSE,FALSE,FALSE,FALSE,FALSE,0,Follow Yaw,0,0,-117,243,FALSE,FALSE,FALSE,FALSE,FALSE,FALSE,,TRUE,Normal,,,1024,1024,1024,1024,0,FALSE,FALSE,FALSE,FALSE,FALSE,0,FALSE,FALSE,FALSE,FALSE,91,16.444,5480,6022,16.441,FALSE,4.17,4.181,4.178,4.175,0.015,FALSE,FALSE,52.82,85.9,85.9,85.9,0,1,0,15,10,7691,1972.04,,Idle,0,30,FALSE,10,TRUE,0,Go Home,39.96119394,-106.2164529,2.8,7867.6,1312.3,TRUE,1,1,FALSE,FALSE,FALSE,FALSE,0,FALSE,FALSE,FALSE,Course Lock,98.4,,9.8,Calm,4,Android, 4.2.16,DF061 - Phantom4Pro V2,11VKF5500202NZ,0BDDF5E00100LW,0WGUF3V00100DS,0DQAF5E03201ZU,447.4,4846.3,211.3,30.9,11.6,0,612,DF061 - Phantom4Pro V2,11VKF5500202NZ,0BDDF5E00100LW,0WGUF3V00100DS,0DQAF5E03201ZU,,Android, 4.2.16,,,,,,
33,6/19/2018,0:08:32,0m 3.9s,3.9,39.9611935,-106.2164426,2.3,2.3,3,8130,1.1,2.1,0,0,0.9,1.6,-0.9,0,-6.1,4.8,-116.4,243.6,Auto Takeoff,Other (34),Takeoff (App Auto),13,4,TRUE,,Phantom 4 Pro V2,TRUE,FALSE,,Smart,RC,FALSE,TRUE,FALSE,,,TRUE,,FALSE,FALSE,FALSE,FALSE,FALSE,FALSE,FALSE,FALSE,FALSE,FALSE,0,Follow Yaw,0,0,-116.9,243.1,FALSE,FALSE,FALSE,FALSE,FALSE,FALSE,,TRUE,Normal,,,1024,1024,1024,1024,0,FALSE,FALSE,FALSE,FALSE,FALSE,0,FALSE,FALSE,FALSE,FALSE,91,16.444,5480,6022,16.441,FALSE,4.17,4.181,4.178,4.175,0.015,FALSE,FALSE,52.82,85.9,85.9,85.9,0,1,0,15,10,7691,1972.04,,Idle,0,30,FALSE,10,TRUE,0,Go Home,39.96119394,-106.2164529,2.9,7867.6,1312.3,TRUE,1,1,FALSE,FALSE,FALSE,FALSE,0,FALSE,FALSE,FALSE,Course Lock,98.4,,9.8,Calm,4,Android, 4.2.16,DF061 - Phantom4Pro V2,11VKF5500202NZ,0BDDF5E00100LW,0WGUF3V00100DS,0DQAF5E03201ZU,447.4,4846.3,211.3,30.9,11.6,0,612,DF061 - Phantom4Pro V2,11VKF5500202NZ,0BDDF5E00100LW,0WGUF3V00100DS,0DQAF5E03201ZU,,Android, 4.2.16,,,,,,
34,6/19/2018,0:08:32,0m 4.0s,4,39.96119343,-106.2164421,2.6,2.6,3.3,8131,0,2.1,0,0,0.9,1.6,-0.9,0,-6.3,4.7,-116.4,243.6,Auto Takeoff,Other (34),Takeoff (App Auto),13,4,TRUE,,Phantom 4 Pro V2,TRUE,FALSE,,Smart,RC,FALSE,TRUE,FALSE,,,TRUE,,FALSE,FALSE,FALSE,FALSE,FALSE,FALSE,FALSE,FALSE,FALSE,FALSE,0,Follow Yaw,0,0,-116.9,243.1,FALSE,FALSE,FALSE,FALSE,FALSE,FALSE,,TRUE,Normal,,,1024,1024,1024,1024,0,FALSE,FALSE,FALSE,FALSE,FALSE,0,FALSE,FALSE,FALSE,FALSE,91,16.444,5480,6022,16.441,FALSE,4.17,4.181,4.178,4.175,0.015,FALSE,FALSE,52.82,85.9,85.9,85.9,0,1,0,15,10,7691,1972.04,,Idle,0,30,FALSE,10,TRUE,0,Go Home,39.96119394,-106.2164529,3.1,7867.6,1312.3,TRUE,1,1,FALSE,FALSE,FALSE,FALSE,0,FALSE,FALSE,FALSE,Course Lock,98.4,,9.8,Calm,4,Android, 4.2.16,DF061 - Phantom4Pro V2,11VKF5500202NZ,0BDDF5E00100LW,0WGUF3V00100DS,0DQAF5E03201ZU,447.4,4846.3,211.3,30.9,11.6,0,612,DF061 - Phantom4Pro V2,11VKF5500202NZ,0BDDF5E00100LW,0WGUF3V00100DS,0DQAF5E03201ZU,,Android, 4.2.16,,,,,,
35,6/19/2018,0:08:32,0m 4.1s,4.1,39.96119337,-106.2164415,2.6,2.6,3.6,8131,0,2.1,0,0,0.9,1.6,-0.9,0,-6.7,4.7,-116.4,243.6,Auto Takeoff,Other (34),Takeoff (App Auto),13,4,TRUE,,Phantom 4 Pro V2,TRUE,FALSE,,Smart,RC,FALSE,TRUE,FALSE,,,TRUE,,FALSE,FALSE,FALSE,FALSE,FALSE,FALSE,FALSE,FALSE,FALSE,FALSE,0,Follow Yaw,0,0,-116.9,243.1,FALSE,FALSE,FALSE,FALSE,FALSE,FALSE,,TRUE,Normal,,,1024,1024,1024,1024,0,FALSE,FALSE,FALSE,FALSE,FALSE,0,FALSE,FALSE,FALSE,FALSE,91,16.444,5480,6022,16.441,FALSE,4.17,4.181,4.178,4.175,0.015,FALSE,FALSE,52.82,85.9,85.9,85.9,0,1,0,15,10,7691,1972.04,,Idle,0,30,FALSE,10,TRUE,0,Go Home,39.96119394,-106.2164529,3.2,7867.6,1312.3,TRUE,1,1,FALSE,FALSE,FALSE,FALSE,0,FALSE,FALSE,FALSE,Course Lock,98.4,,9.8,Calm,4,Android, 4.2.16,DF061 - Phantom4Pro V2,11VKF5500202NZ,0BDDF5E00100LW,0WGUF3V00100DS,0DQAF5E03201ZU,447.4,4846.3,211.3,30.9,11.6,0,612,DF061 - Phantom4Pro V2,11VKF5500202NZ,0BDDF5E00100LW,0WGUF3V00100DS,0DQAF5E03201ZU,,Android, 4.2.16,,,,,,
36,6/19/2018,0:08:32,0m 4.2s,4.2,39.96119327,-106.2164409,3,3,3.6,8131,1.1,2.1,0,0,0.9,1.6,-0.9,0,-7.1,4.4,-116.5,243.5,Auto Takeoff,Other (34),Takeoff (App Auto),13,4,TRUE,,Phantom 4 Pro V2,TRUE,FALSE,,Smart,RC,FALSE,TRUE,FALSE,,,TRUE,,FALSE,FALSE,FALSE,FALSE,FALSE,FALSE,FALSE,FALSE,FALSE,FALSE,0,Follow Yaw,0,0,-116.9,243.1,FALSE,FALSE,FALSE,FALSE,FALSE,FALSE,,TRUE,Normal,,,1024,1024,1024,1024,0,FALSE,FALSE,FALSE,FALSE,FALSE,0,FALSE,FALSE,FALSE,FALSE,91,16.444,5480,6022,16.441,FALSE,4.17,4.181,4.178,4.175,0.015,FALSE,FALSE,52.82,85.9,85.9,85.9,0,1,0,15,10,7691,1972.04,,Idle,0,30,FALSE,10,TRUE,0,Go Home,39.96119394,-106.2164529,3.4,7867.6,1312.3,TRUE,1,1,FALSE,FALSE,FALSE,FALSE,0,FALSE,FALSE,FALSE,Course Lock,98.4,,9.8,Calm,4,Android, 4.2.16,DF061 - Phantom4Pro V2,11VKF5500202NZ,0BDDF5E00100LW,0WGUF3V00100DS,0DQAF5E03201ZU,447.4,4846.3,211.3,30.9,11.6,0,612,DF061 - Phantom4Pro V2,11VKF5500202NZ,0BDDF5E00100LW,0WGUF3V00100DS,0DQAF5E03201ZU,,Android, 4.2.16,,,,,,
37,6/19/2018,0:08:32,0m 4.3s,4.3,39.961193,-106.2164402,3,3,3.6,8131,1.5,2.1,0,0,0.9,1.6,-0.9,0,-6.9,5,-116.6,243.4,Auto Takeoff,Other (34),Takeoff (App Auto),14,4,TRUE,,Phantom 4 Pro V2,TRUE,FALSE,,Smart,RC,FALSE,TRUE,FALSE,,,TRUE,,FALSE,FALSE,FALSE,FALSE,FALSE,FALSE,FALSE,FALSE,FALSE,FALSE,0,Follow Yaw,0,0,-116.8,243.2,FALSE,FALSE,FALSE,FALSE,FALSE,FALSE,,TRUE,Normal,,,1024,1024,1024,1024,0,FALSE,FALSE,FALSE,FALSE,FALSE,0,FALSE,FALSE,FALSE,FALSE,91,16.444,5480,6022,16.441,FALSE,4.17,4.181,4.178,4.175,0.015,FALSE,FALSE,52.82,85.9,85.9,85.9,0,1,0,15,10,7691,1972.04,,Idle,0,30,FALSE,10,TRUE,0,Go Home,39.96119394,-106.2164529,3.6,7867.6,1312.3,TRUE,1,1,FALSE,FALSE,FALSE,FALSE,0,FALSE,FALSE,FALSE,Course Lock,98.4,,9.8,Calm,4,Android, 4.2.16,DF061 - Phantom4Pro V2,11VKF5500202NZ,0BDDF5E00100LW,0WGUF3V00100DS,0DQAF5E03201ZU,447.4,4846.3,211.3,30.9,11.6,0,612,DF061 - Phantom4Pro V2,11VKF5500202NZ,0BDDF5E00100LW,0WGUF3V00100DS,0DQAF5E03201ZU,,Android, 4.2.16,,,,,,
38,6/19/2018,0:08:32,0m 4.4s,4.4,39.96119293,-106.2164397,3,3,3.9,8131,1.1,2.1,0,0,0.9,1.6,-0.9,0,-7.2,4.8,-116.7,243.3,Auto Takeoff,Other (34),Takeoff (App Auto),14,4,TRUE,,Phantom 4 Pro V2,TRUE,FALSE,,Smart,RC,FALSE,TRUE,FALSE,,,TRUE,,FALSE,FALSE,FALSE,FALSE,FALSE,FALSE,FALSE,FALSE,FALSE,FALSE,0,Follow Yaw,0,0,-116.8,243.2,FALSE,FALSE,FALSE,FALSE,FALSE,FALSE,,TRUE,Normal,,,1024,1024,1024,1024,0,FALSE,FALSE,FALSE,FALSE,FALSE,0,FALSE,FALSE,FALSE,FALSE,91,16.444,5480,6022,16.441,FALSE,4.17,4.181,4.178,4.175,0.015,FALSE,FALSE,52.82,85.9,85.9,85.9,0,1,0,15,10,7691,1972.04,,Idle,0,30,FALSE,10,TRUE,0,Go Home,39.96119394,-106.2164529,3.7,7867.6,1312.3,TRUE,1,1,FALSE,FALSE,FALSE,FALSE,0,FALSE,FALSE,FALSE,Course Lock,98.4,,9.8,Calm,4,Android, 4.2.16,DF061 - Phantom4Pro V2,11VKF5500202NZ,0BDDF5E00100LW,0WGUF3V00100DS,0DQAF5E03201ZU,447.4,4846.3,211.3,30.9,11.6,0,612,DF061 - Phantom4Pro V2,11VKF5500202NZ,0BDDF5E00100LW,0WGUF3V00100DS,0DQAF5E03201ZU,,Android, 4.2.16,,,,,,
39,6/19/2018,0:08:32,0m 4.5s,4.5,39.9611929,-106.2164391,3.3,3.3,3.9,8131,0,2.1,0,0,0.9,1.6,-1.1,0,-7.4,4.2,-116.9,243.1,Auto Takeoff,Other (34),Takeoff (App Auto),14,4,TRUE,,Phantom 4 Pro V2,TRUE,FALSE,,Smart,RC,FALSE,TRUE,FALSE,,,TRUE,,FALSE,FALSE,FALSE,FALSE,FALSE,FALSE,FALSE,FALSE,FALSE,FALSE,0,Follow Yaw,0,0,-116.8,243.2,FALSE,FALSE,FALSE,FALSE,FALSE,FALSE,,TRUE,Normal,,,1024,1024,1024,1024,0,FALSE,FALSE,FALSE,FALSE,FALSE,0,FALSE,FALSE,FALSE,FALSE,91,16.444,5480,6022,16.441,FALSE,4.17,4.181,4.178,4.175,0.015,FALSE,FALSE,52.82,85.9,85.9,85.9,0,1,0,15,10,7691,1972.04,,Idle,0,30,FALSE,10,TRUE,0,Go Home,39.96119394,-106.2164529,3.9,7867.6,1312.3,TRUE,1,1,FALSE,FALSE,FALSE,FALSE,0,FALSE,FALSE,FALSE,Course Lock,98.4,,9.8,Calm,4,Android, 4.2.16,DF061 - Phantom4Pro V2,11VKF5500202NZ,0BDDF5E00100LW,0WGUF3V00100DS,0DQAF5E03201ZU,447.4,4846.3,211.3,30.9,11.6,0,612,DF061 - Phantom4Pro V2,11VKF5500202NZ,0BDDF5E00100LW,0WGUF3V00100DS,0DQAF5E03201ZU,,Android, 4.2.16,,,,,,
40,6/19/2018,0:08:32,0m 4.6s,4.6,39.96119284,-106.2164386,3.6,3.6,4.3,8132,0,2.1,0,0,0.9,1.6,-1.1,0,-6.8,4,-116.9,243.1,Auto Takeoff,Other (34),Takeoff (App Auto),14,4,TRUE,,Phantom 4 Pro V2,TRUE,FALSE,,Smart,RC,FALSE,TRUE,FALSE,,,TRUE,,FALSE,FALSE,FALSE,FALSE,FALSE,FALSE,FALSE,FALSE,FALSE,FALSE,0,Follow Yaw,0,0,-116.8,243.2,FALSE,FALSE,FALSE,FALSE,FALSE,FALSE,,TRUE,Normal,,,1024,1024,1024,1024,0,FALSE,FALSE,FALSE,FALSE,FALSE,0,FALSE,FALSE,FALSE,FALSE,91,16.444,5480,6022,16.441,FALSE,4.17,4.181,4.178,4.175,0.015,FALSE,FALSE,52.82,85.9,85.9,85.9,0,1,0,15,10,7691,1972.04,,Idle,0,30,FALSE,10,TRUE,0,Go Home,39.96119394,-106.2164529,4,7867.6,1312.3,TRUE,1,1,FALSE,FALSE,FALSE,FALSE,0,FALSE,FALSE,FALSE,Course Lock,98.4,,9.8,Calm,4,Android, 4.2.16,DF061 - Phantom4Pro V2,11VKF5500202NZ,0BDDF5E00100LW,0WGUF3V00100DS,0DQAF5E03201ZU,447.4,4846.3,211.3,30.9,11.6,0,612,DF061 - Phantom4Pro V2,11VKF5500202NZ,0BDDF5E00100LW,0WGUF3V00100DS,0DQAF5E03201ZU,,Android, 4.2.16,,,,,,
41,6/19/2018,0:08:32,0m 4.7s,4.7,39.96119274,-106.2164381,3.6,3.6,4.3,8132,1.5,2.1,0,0,0.7,1.6,-1.1,0,-6,4.7,-116.8,243.2,Auto Takeoff,Other (34),Takeoff (App Auto),14,4,TRUE,,Phantom 4 Pro V2,TRUE,FALSE,,Smart,RC,FALSE,TRUE,FALSE,,,TRUE,,FALSE,FALSE,FALSE,FALSE,FALSE,FALSE,FALSE,FALSE,FALSE,FALSE,0,Follow Yaw,0,0,-116.8,243.2,FALSE,FALSE,FALSE,FALSE,FALSE,FALSE,,TRUE,Normal,,,1024,1024,1024,1024,0,FALSE,FALSE,FALSE,FALSE,FALSE,0,FALSE,FALSE,FALSE,FALSE,91,16.355,5480,6022,16.356,FALSE,4.105,4.102,4.102,4.095,0.015,FALSE,FALSE,52.82,85.9,85.9,85.9,0,2,0,15,10,11255.6,2886.05,,Idle,0,30,FALSE,10,TRUE,0,Go Home,39.96119394,-106.2164529,4.2,7867.6,1312.3,TRUE,1,1,FALSE,FALSE,FALSE,FALSE,0,FALSE,FALSE,FALSE,Course Lock,98.4,,9.8,Calm,4,Android, 4.2.16,DF061 - Phantom4Pro V2,11VKF5500202NZ,0BDDF5E00100LW,0WGUF3V00100DS,0DQAF5E03201ZU,447.4,4846.3,211.3,30.9,11.6,0,612,DF061 - Phantom4Pro V2,11VKF5500202NZ,0BDDF5E00100LW,0WGUF3V00100DS,0DQAF5E03201ZU,,Android, 4.2.16,,,,,,
42,6/19/2018,0:08:32,0m 4.8s,4.8,39.96119269,-106.2164377,3.9,3.9,4.3,8132,0,2.1,0,0,0.7,1.6,-1.1,0,-5.7,4.9,-116.6,243.4,Auto Takeoff,Other (34),Takeoff (App Auto),14,4,TRUE,,Phantom 4 Pro V2,TRUE,FALSE,,Smart,RC,FALSE,TRUE,FALSE,,,TRUE,,FALSE,FALSE,FALSE,FALSE,FALSE,FALSE,FALSE,FALSE,FALSE,FALSE,0,Follow Yaw,0,0,-116.8,243.2,FALSE,FALSE,FALSE,FALSE,FALSE,FALSE,,TRUE,Normal,,,1024,1024,1024,1024,0,FALSE,FALSE,FALSE,FALSE,FALSE,0,FALSE,FALSE,FALSE,FALSE,91,16.355,5480,6022,16.356,FALSE,4.105,4.102,4.102,4.095,0.015,FALSE,FALSE,52.82,85.9,85.9,85.9,0,2,0,15,10,11255.6,2886.05,,Idle,0,30,FALSE,10,TRUE,0,Go Home,39.96119394,-106.2164529,4.3,7867.6,1312.3,TRUE,1,1,FALSE,FALSE,FALSE,FALSE,0,FALSE,FALSE,FALSE,Course Lock,98.4,,9.8,Calm,4,Android, 4.2.16,DF061 - Phantom4Pro V2,11VKF5500202NZ,0BDDF5E00100LW,0WGUF3V00100DS,0DQAF5E03201ZU,447.4,4846.3,211.3,30.9,11.6,0,612,DF061 - Phantom4Pro V2,11VKF5500202NZ,0BDDF5E00100LW,0WGUF3V00100DS,0DQAF5E03201ZU,,Android, 4.2.16,,,,,,
43,6/19/2018,0:08:33,0m 4.9s,4.9,39.96119262,-106.2164373,3.9,3.9,4.6,8132,1.5,2.1,0,0,0.9,1.6,-1.1,0,-6.2,4.8,-116.6,243.4,Auto Takeoff,Other (34),Takeoff (App Auto),15,4,TRUE,,Phantom 4 Pro V2,TRUE,FALSE,,Smart,RC,FALSE,TRUE,FALSE,,,TRUE,,FALSE,FALSE,FALSE,FALSE,FALSE,FALSE,FALSE,FALSE,FALSE,FALSE,0,Follow Yaw,0,0,-116.8,243.2,FALSE,FALSE,FALSE,FALSE,FALSE,FALSE,,TRUE,Normal,,,1024,1024,1024,1024,0,FALSE,FALSE,FALSE,FALSE,FALSE,0,FALSE,FALSE,FALSE,FALSE,91,16.355,5480,6022,16.356,FALSE,4.105,4.102,4.102,4.095,0.015,FALSE,FALSE,52.82,85.9,85.9,85.9,0,2,0,15,10,11255.6,2886.05,,Idle,0,30,FALSE,10,TRUE,0,Go Home,39.96119394,-106.2164529,4.4,7867.6,1312.3,TRUE,1,1,FALSE,FALSE,FALSE,FALSE,0,FALSE,FALSE,FALSE,Course Lock,98.4,,9.8,Calm,4,Android, 4.2.16,DF061 - Phantom4Pro V2,11VKF5500202NZ,0BDDF5E00100LW,0WGUF3V00100DS,0DQAF5E03201ZU,447.4,4846.3,211.3,30.9,11.6,0,612,DF061 - Phantom4Pro V2,11VKF5500202NZ,0BDDF5E00100LW,0WGUF3V00100DS,0DQAF5E03201ZU,,Android, 4.2.16,,,,,,
44,6/19/2018,0:08:33,0m 5.0s,5,39.96119257,-106.2164368,4.3,4.3,4.6,8132,0,2.1,0,0,0.9,1.6,-1.1,0,-6.4,5,-116.6,243.4,Auto Takeoff,Other (34),Takeoff (App Auto),15,4,TRUE,,Phantom 4 Pro V2,TRUE,FALSE,,Smart,RC,FALSE,TRUE,FALSE,,,TRUE,,FALSE,FALSE,FALSE,FALSE,FALSE,FALSE,FALSE,FALSE,FALSE,FALSE,0,Follow Yaw,0,0,-116.8,243.2,FALSE,FALSE,FALSE,FALSE,FALSE,FALSE,,TRUE,Normal,,,1024,1024,1024,1024,0,FALSE,FALSE,FALSE,FALSE,FALSE,0,FALSE,FALSE,FALSE,FALSE,91,16.355,5480,6022,16.356,FALSE,4.105,4.102,4.102,4.095,0.015,FALSE,FALSE,52.82,85.9,85.9,85.9,0,2,0,15,10,11255.6,2886.05,,Idle,0,30,FALSE,10,TRUE,0,Go Home,39.96119394,-106.2164529,4.5,7867.6,1312.3,TRUE,1,1,FALSE,FALSE,FALSE,FALSE,0,FALSE,FALSE,FALSE,Course Lock,98.4,,9.8,Calm,4,Android, 4.2.16,DF061 - Phantom4Pro V2,11VKF5500202NZ,0BDDF5E00100LW,0WGUF3V00100DS,0DQAF5E03201ZU,447.4,4846.3,211.3,30.9,11.6,0,612,DF061 - Phantom4Pro V2,11VKF5500202NZ,0BDDF5E00100LW,0WGUF3V00100DS,0DQAF5E03201ZU,,Android, 4.2.16,,,,,,
45,6/19/2018,0:08:33,0m 5.1s,5.1,39.96119254,-106.2164363,4.3,4.3,4.9,8132,1.1,2.1,0,0,0.9,1.6,-0.9,0,-7,4.8,-116.6,243.4,Auto Takeoff,Other (34),Takeoff (App Auto),15,4,TRUE,,Phantom 4 Pro V2,TRUE,FALSE,,Smart,RC,FALSE,TRUE,FALSE,,,TRUE,,FALSE,FALSE,FALSE,FALSE,FALSE,FALSE,FALSE,FALSE,FALSE,FALSE,0,Follow Yaw,0,0,-116.8,243.2,FALSE,FALSE,FALSE,FALSE,FALSE,FALSE,,TRUE,Normal,,,1024,1024,1024,1024,0,FALSE,FALSE,FALSE,FALSE,FALSE,0,FALSE,FALSE,FALSE,FALSE,91,16.355,5480,6022,16.356,FALSE,4.105,4.102,4.102,4.095,0.015,FALSE,FALSE,52.82,85.9,85.9,85.9,0,2,0,15,10,11255.6,2886.05,,Idle,0,30,FALSE,10,TRUE,0,Go Home,39.96119394,-106.2164529,4.7,7867.6,1312.3,TRUE,1,1,FALSE,FALSE,FALSE,FALSE,0,FALSE,FALSE,FALSE,Course Lock,98.4,,9.8,Calm,4,Android, 4.2.16,DF061 - Phantom4Pro V2,11VKF5500202NZ,0BDDF5E00100LW,0WGUF3V00100DS,0DQAF5E03201ZU,447.4,4846.3,211.3,30.9,11.6,0,612,DF061 - Phantom4Pro V2,11VKF5500202NZ,0BDDF5E00100LW,0WGUF3V00100DS,0DQAF5E03201ZU,,Android, 4.2.16,,,,,,
46,6/19/2018,0:08:33,0m 5.2s,5.2,39.96119252,-106.216436,4.6,4.6,4.9,8133,0,2.1,0,0,0.9,1.6,-0.9,0,-7.1,4.8,-116.7,243.3,Auto Takeoff,Other (34),Takeoff (App Auto),15,4,TRUE,,Phantom 4 Pro V2,TRUE,FALSE,,Smart,RC,FALSE,TRUE,FALSE,,,TRUE,,FALSE,FALSE,FALSE,FALSE,FALSE,FALSE,FALSE,FALSE,FALSE,FALSE,0,Follow Yaw,0,0,-116.8,243.2,FALSE,FALSE,FALSE,FALSE,FALSE,FALSE,,TRUE,Normal,,,1024,1024,1024,1024,0,FALSE,FALSE,FALSE,FALSE,FALSE,0,FALSE,FALSE,FALSE,FALSE,91,16.355,5480,6022,16.356,FALSE,4.105,4.102,4.102,4.095,0.015,FALSE,FALSE,52.82,85.9,85.9,85.9,0,2,0,15,10,11255.6,2886.05,,Idle,0,30,FALSE,10,TRUE,0,Go Home,39.96119394,-106.2164529,4.8,7867.6,1312.3,TRUE,1,1,FALSE,FALSE,FALSE,FALSE,0,FALSE,FALSE,FALSE,Course Lock,98.4,,9.8,Calm,4,Android, 4.2.16,DF061 - Phantom4Pro V2,11VKF5500202NZ,0BDDF5E00100LW,0WGUF3V00100DS,0DQAF5E03201ZU,447.4,4846.3,211.3,30.9,11.6,0,612,DF061 - Phantom4Pro V2,11VKF5500202NZ,0BDDF5E00100LW,0WGUF3V00100DS,0DQAF5E03201ZU,,Android, 4.2.16,,,,,,
47,6/19/2018,0:08:33,0m 5.3s,5.3,39.9611924,-106.2164355,4.6,4.6,5.2,8133,1.5,2.1,0,0,0.9,1.6,-0.9,0,-7,4.3,-116.8,243.2,Auto Takeoff,Other (34),Takeoff (App Auto),14,4,TRUE,,Phantom 4 Pro V2,TRUE,FALSE,,Smart,RC,FALSE,TRUE,FALSE,,,TRUE,,FALSE,FALSE,FALSE,FALSE,FALSE,FALSE,FALSE,FALSE,FALSE,FALSE,0,Follow Yaw,0,0,-116.7,243.3,FALSE,FALSE,FALSE,FALSE,FALSE,FALSE,,TRUE,Normal,,,1024,1024,1024,1024,0,FALSE,FALSE,FALSE,FALSE,FALSE,0,FALSE,FALSE,FALSE,FALSE,91,16.355,5480,6022,16.356,FALSE,4.105,4.102,4.102,4.095,0.015,FALSE,FALSE,52.82,85.9,85.9,85.9,0,2,0,15,10,11255.6,2886.05,,Idle,0,30,FALSE,10,TRUE,0,Go Home,39.96119394,-106.2164529,4.9,7867.6,1312.3,TRUE,1,1,FALSE,FALSE,FALSE,FALSE,0,FALSE,FALSE,FALSE,Course Lock,98.4,,9.8,Calm,4,Android, 4.2.16,DF061 - Phantom4Pro V2,11VKF5500202NZ,0BDDF5E00100LW,0WGUF3V00100DS,0DQAF5E03201ZU,447.4,4846.3,211.3,30.9,11.6,0,612,DF061 - Phantom4Pro V2,11VKF5500202NZ,0BDDF5E00100LW,0WGUF3V00100DS,0DQAF5E03201ZU,,Android, 4.2.16,,,,,,
48,6/19/2018,0:08:33,0m 5.4s,5.4,39.96119232,-106.216435,4.9,4.9,5.2,8133,1.1,2.1,0,0,0.9,1.6,-1.1,0,-7.2,4.7,-116.8,243.2,Auto Takeoff,Other (34),Takeoff (App Auto),14,4,TRUE,,Phantom 4 Pro V2,TRUE,FALSE,,Smart,RC,FALSE,TRUE,FALSE,,,TRUE,,FALSE,FALSE,FALSE,FALSE,FALSE,FALSE,FALSE,FALSE,FALSE,FALSE,0,Follow Yaw,0,0,-116.7,243.3,FALSE,FALSE,FALSE,FALSE,FALSE,FALSE,,TRUE,Normal,,,1024,1024,1024,1024,0,FALSE,FALSE,FALSE,FALSE,FALSE,0,FALSE,FALSE,FALSE,FALSE,91,16.355,5480,6022,16.356,FALSE,4.105,4.102,4.102,4.095,0.015,FALSE,FALSE,52.82,85.9,85.9,85.9,0,2,0,15,10,11255.6,2886.05,,Idle,0,30,FALSE,10,TRUE,0,Go Home,39.96119394,-106.2164529,5.1,7867.6,1312.3,TRUE,1,1,FALSE,FALSE,FALSE,FALSE,0,FALSE,FALSE,FALSE,Course Lock,98.4,,9.8,Calm,4,Android, 4.2.16,DF061 - Phantom4Pro V2,11VKF5500202NZ,0BDDF5E00100LW,0WGUF3V00100DS,0DQAF5E03201ZU,447.4,4846.3,211.3,30.9,11.6,0,612,DF061 - Phantom4Pro V2,11VKF5500202NZ,0BDDF5E00100LW,0WGUF3V00100DS,0DQAF5E03201ZU,,Android, 4.2.16,,,,,,
49,6/19/2018,0:08:33,0m 5.5s,5.5,39.96119226,-106.2164345,4.9,4.9,5.6,8133,0,2.1,0,0,0.9,1.6,-1.1,0,-7.1,4.8,-116.9,243.1,Auto Takeoff,Other (34),Takeoff (App Auto),15,4,TRUE,,Phantom 4 Pro V2,TRUE,FALSE,,Smart,RC,FALSE,TRUE,FALSE,,,TRUE,,FALSE,FALSE,FALSE,FALSE,FALSE,FALSE,FALSE,FALSE,FALSE,FALSE,0,Follow Yaw,0,0,-116.7,243.3,FALSE,FALSE,FALSE,FALSE,FALSE,FALSE,,TRUE,Normal,,,1024,1024,1024,1024,0,FALSE,FALSE,FALSE,FALSE,FALSE,0,FALSE,FALSE,FALSE,FALSE,91,16.355,5480,6022,16.356,FALSE,4.105,4.102,4.102,4.095,0.015,FALSE,FALSE,52.82,85.9,85.9,85.9,0,2,0,15,10,11255.6,2886.05,,Idle,0,30,FALSE,10,TRUE,0,Go Home,39.96119394,-106.2164529,5.2,7867.6,1312.3,TRUE,1,1,FALSE,FALSE,FALSE,FALSE,0,FALSE,FALSE,FALSE,Course Lock,98.4,,9.8,Calm,4,Android, 4.2.16,DF061 - Phantom4Pro V2,11VKF5500202NZ,0BDDF5E00100LW,0WGUF3V00100DS,0DQAF5E03201ZU,447.4,4846.3,211.3,30.9,11.6,0,612,DF061 - Phantom4Pro V2,11VKF5500202NZ,0BDDF5E00100LW,0WGUF3V00100DS,0DQAF5E03201ZU,,Android, 4.2.16,,,,,,
50,6/19/2018,0:08:33,0m 5.6s,5.6,39.96119216,-106.2164337,5.2,5.2,5.6,8133,1.1,2.1,-0.2,0,0.9,1.6,-0.9,0,-6.9,5.1,-116.9,243.1,Auto Takeoff,Other (34),Takeoff (App Auto),15,4,TRUE,,Phantom 4 Pro V2,TRUE,FALSE,,Smart,RC,FALSE,TRUE,FALSE,,,TRUE,,FALSE,FALSE,FALSE,FALSE,FALSE,FALSE,FALSE,FALSE,FALSE,FALSE,0,Follow Yaw,0,0,-116.7,243.3,FALSE,FALSE,FALSE,FALSE,FALSE,FALSE,,TRUE,Normal,,,1024,1024,1024,1024,0,FALSE,FALSE,FALSE,FALSE,FALSE,0,FALSE,FALSE,FALSE,FALSE,91,16.355,5480,6022,16.356,FALSE,4.105,4.102,4.102,4.095,0.015,FALSE,FALSE,52.82,85.9,85.9,85.9,0,2,0,15,10,11255.6,2886.05,,Idle,0,30,FALSE,10,TRUE,0,Go Home,39.96119394,-106.2164529,5.4,7867.6,1312.3,TRUE,1,1,FALSE,FALSE,FALSE,FALSE,0,FALSE,FALSE,FALSE,Course Lock,98.4,,9.8,Calm,4,Android, 4.2.16,DF061 - Phantom4Pro V2,11VKF5500202NZ,0BDDF5E00100LW,0WGUF3V00100DS,0DQAF5E03201ZU,447.4,4846.3,211.3,30.9,11.6,0,612,DF061 - Phantom4Pro V2,11VKF5500202NZ,0BDDF5E00100LW,0WGUF3V00100DS,0DQAF5E03201ZU,,Android, 4.2.16,,,,,,
51,6/19/2018,0:08:33,0m 5.7s,5.7,39.9611921,-106.2164331,5.2,5.2,5.6,8133,1.1,2.1,0,0,0.7,1.6,-1.1,0,-6.3,5.9,-116.7,243.3,Auto Takeoff,Other (34),Takeoff (App Auto),15,4,TRUE,,Phantom 4 Pro V2,TRUE,FALSE,,Smart,RC,FALSE,TRUE,FALSE,,,TRUE,,FALSE,FALSE,FALSE,FALSE,FALSE,FALSE,FALSE,FALSE,FALSE,FALSE,0,Follow Yaw,0,0,-116.7,243.3,FALSE,FALSE,FALSE,FALSE,FALSE,FALSE,,TRUE,Normal,,,1024,1024,1024,1024,0,FALSE,FALSE,FALSE,FALSE,FALSE,0,FALSE,FALSE,FALSE,FALSE,91,16.322,5480,6022,16.321,FALSE,4.092,4.088,4.093,4.085,0.015,FALSE,FALSE,53.388,85.9,85.9,85.9,0,3,0,15,10,16577,4250.52,,Idle,0,30,FALSE,10,TRUE,0,Go Home,39.96119394,-106.2164529,5.6,7867.6,1312.3,TRUE,1,1,FALSE,FALSE,FALSE,FALSE,0,FALSE,FALSE,FALSE,Course Lock,98.4,,9.8,Calm,4,Android, 4.2.16,DF061 - Phantom4Pro V2,11VKF5500202NZ,0BDDF5E00100LW,0WGUF3V00100DS,0DQAF5E03201ZU,447.4,4846.3,211.3,30.9,11.6,0,612,DF061 - Phantom4Pro V2,11VKF5500202NZ,0BDDF5E00100LW,0WGUF3V00100DS,0DQAF5E03201ZU,,Android, 4.2.16,,,,,,
52,6/19/2018,0:08:33,0m 5.8s,5.8,39.96119208,-106.2164327,5.6,5.6,5.9,8134,1.5,2.1,0,0,0.7,1.6,-1.1,0,-6.4,5.1,-116.8,243.2,Auto Takeoff,Other (34),Takeoff (App Auto),15,4,TRUE,,Phantom 4 Pro V2,TRUE,FALSE,,Smart,RC,FALSE,TRUE,FALSE,,,TRUE,,FALSE,FALSE,FALSE,FALSE,FALSE,FALSE,FALSE,FALSE,FALSE,FALSE,0,Follow Yaw,0,0,-116.7,243.3,FALSE,FALSE,FALSE,FALSE,FALSE,FALSE,,TRUE,Normal,,,1024,1024,1024,1024,0,FALSE,FALSE,FALSE,FALSE,FALSE,0,FALSE,FALSE,FALSE,FALSE,91,16.322,5480,6022,16.321,FALSE,4.092,4.088,4.093,4.085,0.015,FALSE,FALSE,53.388,85.9,85.9,85.9,0,3,0,15,10,16577,4250.52,,Idle,0,30,FALSE,10,TRUE,0,Go Home,39.96119394,-106.2164529,5.7,7867.6,1312.3,TRUE,1,1,FALSE,FALSE,FALSE,FALSE,0,FALSE,FALSE,FALSE,Course Lock,98.4,,9.8,Calm,4,Android, 4.2.16,DF061 - Phantom4Pro V2,11VKF5500202NZ,0BDDF5E00100LW,0WGUF3V00100DS,0DQAF5E03201ZU,447.4,4846.3,211.3,30.9,11.6,0,612,DF061 - Phantom4Pro V2,11VKF5500202NZ,0BDDF5E00100LW,0WGUF3V00100DS,0DQAF5E03201ZU,,Android, 4.2.16,,,,,,
53,6/19/2018,0:08:34,0m 5.9s,5.9,39.9611921,-106.2164323,5.6,5.6,5.9,8134,1.5,2.1,0,0,0.7,1.6,-1.1,0,-6.5,4.9,-116.8,243.2,Auto Takeoff,Other (34),Takeoff (App Auto),15,4,TRUE,,Phantom 4 Pro V2,TRUE,FALSE,,Smart,RC,FALSE,TRUE,FALSE,,,TRUE,,FALSE,FALSE,FALSE,FALSE,FALSE,FALSE,FALSE,FALSE,FALSE,FALSE,0,Follow Yaw,0,0,-116.7,243.3,FALSE,FALSE,FALSE,FALSE,FALSE,FALSE,,TRUE,Normal,,,1024,1024,1024,1024,0,FALSE,FALSE,FALSE,FALSE,FALSE,0,FALSE,FALSE,FALSE,FALSE,91,16.322,5480,6022,16.321,FALSE,4.092,4.088,4.093,4.085,0.015,FALSE,FALSE,53.388,85.9,85.9,85.9,0,3,0,15,10,16577,4250.52,,Idle,0,30,FALSE,10,TRUE,0,Go Home,39.96119394,-106.2164529,5.8,7867.6,1312.3,TRUE,1,1,FALSE,FALSE,FALSE,FALSE,0,FALSE,FALSE,FALSE,Course Lock,98.4,,9.8,Calm,4,Android, 4.2.16,DF061 - Phantom4Pro V2,11VKF5500202NZ,0BDDF5E00100LW,0WGUF3V00100DS,0DQAF5E03201ZU,447.4,4846.3,211.3,30.9,11.6,0,612,DF061 - Phantom4Pro V2,11VKF5500202NZ,0BDDF5E00100LW,0WGUF3V00100DS,0DQAF5E03201ZU,,Android, 4.2.16,,,,,,
54,6/19/2018,0:08:34,0m 6.0s,6,39.96119197,-106.2164319,5.6,5.6,6.2,8134,1.1,2.1,0,0,0.7,1.6,-0.9,0,-6.4,4.1,-116.8,243.2,Auto Takeoff,Other (34),Takeoff (App Auto),15,4,TRUE,,Phantom 4 Pro V2,TRUE,FALSE,,Smart,RC,FALSE,TRUE,FALSE,,,TRUE,,FALSE,FALSE,FALSE,FALSE,FALSE,FALSE,FALSE,FALSE,FALSE,FALSE,0,Follow Yaw,0,0,-116.7,243.3,FALSE,FALSE,FALSE,FALSE,FALSE,FALSE,,TRUE,Normal,,,1024,1024,1024,1024,0,FALSE,FALSE,FALSE,FALSE,FALSE,0,FALSE,FALSE,FALSE,FALSE,91,16.322,5480,6022,16.321,FALSE,4.092,4.088,4.093,4.085,0.015,FALSE,FALSE,53.388,85.9,85.9,85.9,0,3,0,15,10,16577,4250.52,,Idle,0,30,FALSE,10,TRUE,0,Go Home,39.96119394,-106.2164529,5.9,7867.6,1312.3,TRUE,1,1,FALSE,FALSE,FALSE,FALSE,0,FALSE,FALSE,FALSE,Course Lock,98.4,,9.8,Calm,4,Android, 4.2.16,DF061 - Phantom4Pro V2,11VKF5500202NZ,0BDDF5E00100LW,0WGUF3V00100DS,0DQAF5E03201ZU,447.4,4846.3,211.3,30.9,11.6,0,612,DF061 - Phantom4Pro V2,11VKF5500202NZ,0BDDF5E00100LW,0WGUF3V00100DS,0DQAF5E03201ZU,,Android, 4.2.16,,,,,,
55,6/19/2018,0:08:34,0m 6.1s,6.1,39.96119186,-106.2164314,5.9,5.9,6.2,8134,1.5,2.1,0,0,0.7,1.6,-0.9,0,-6.3,3.9,-116.8,243.2,Auto Takeoff,Other (34),Takeoff (App Auto),15,4,TRUE,,Phantom 4 Pro V2,TRUE,FALSE,,Smart,RC,FALSE,TRUE,FALSE,,,TRUE,,FALSE,FALSE,FALSE,FALSE,FALSE,FALSE,FALSE,FALSE,FALSE,FALSE,0,Follow Yaw,0,0,-116.7,243.3,FALSE,FALSE,FALSE,FALSE,FALSE,FALSE,,TRUE,Normal,,,1024,1024,1024,1024,0,FALSE,FALSE,FALSE,FALSE,FALSE,0,FALSE,FALSE,FALSE,FALSE,91,16.322,5480,6022,16.321,FALSE,4.092,4.088,4.093,4.085,0.015,FALSE,FALSE,53.388,85.9,85.9,85.9,0,3,0,15,10,16577,4250.52,,Idle,0,30,FALSE,10,TRUE,0,Go Home,39.96119394,-106.2164529,6.1,7867.6,1312.3,TRUE,1,1,FALSE,FALSE,FALSE,FALSE,0,FALSE,FALSE,FALSE,Course Lock,98.4,,9.8,Calm,4,Android, 4.2.16,DF061 - Phantom4Pro V2,11VKF5500202NZ,0BDDF5E00100LW,0WGUF3V00100DS,0DQAF5E03201ZU,447.4,4846.3,211.3,30.9,11.6,0,612,DF061 - Phantom4Pro V2,11VKF5500202NZ,0BDDF5E00100LW,0WGUF3V00100DS,0DQAF5E03201ZU,,Android, 4.2.16,,,,,,
56,6/19/2018,0:08:34,0m 6.2s,6.2,39.96119179,-106.216431,5.9,5.9,6.6,8134,1.1,2.1,0,0,0.5,1.6,-1.1,0,-5.6,4,-116.8,243.2,Auto Takeoff,Other (34),Takeoff (App Auto),15,4,TRUE,,Phantom 4 Pro V2,TRUE,FALSE,,Smart,RC,FALSE,TRUE,FALSE,,,TRUE,,FALSE,FALSE,FALSE,FALSE,FALSE,FALSE,FALSE,FALSE,FALSE,FALSE,0,Follow Yaw,0,0,-116.7,243.3,FALSE,FALSE,FALSE,FALSE,FALSE,FALSE,,TRUE,Normal,,,1024,1024,1024,1024,0,FALSE,FALSE,FALSE,FALSE,FALSE,0,FALSE,FALSE,FALSE,FALSE,91,16.322,5480,6022,16.321,FALSE,4.092,4.088,4.093,4.085,0.015,FALSE,FALSE,53.388,85.9,85.9,85.9,0,3,0,15,10,16577,4250.52,,Idle,0,30,FALSE,10,TRUE,0,Go Home,39.96119394,-106.2164529,6.2,7867.6,1312.3,TRUE,1,1,FALSE,FALSE,FALSE,FALSE,0,FALSE,FALSE,FALSE,Course Lock,98.4,,9.8,Calm,4,Android, 4.2.16,DF061 - Phantom4Pro V2,11VKF5500202NZ,0BDDF5E00100LW,0WGUF3V00100DS,0DQAF5E03201ZU,447.4,4846.3,211.3,30.9,11.6,0,612,DF061 - Phantom4Pro V2,11VKF5500202NZ,0BDDF5E00100LW,0WGUF3V00100DS,0DQAF5E03201ZU,,Android, 4.2.16,,,,,,
57,6/19/2018,0:08:34,0m 6.3s,6.3,39.96119174,-106.2164307,6.2,6.2,6.6,8134,1.1,2.1,0,0,0.5,1.6,-1.1,0,-5.3,4.8,-116.7,243.3,Auto Takeoff,Other (34),Takeoff (App Auto),15,4,TRUE,,Phantom 4 Pro V2,TRUE,FALSE,,Smart,RC,FALSE,TRUE,FALSE,,,TRUE,,FALSE,FALSE,FALSE,FALSE,FALSE,FALSE,FALSE,FALSE,FALSE,FALSE,0,Follow Yaw,0,0,-116.7,243.3,FALSE,FALSE,FALSE,FALSE,FALSE,FALSE,,TRUE,Normal,,,1024,1024,1024,1024,0,FALSE,FALSE,FALSE,FALSE,FALSE,0,FALSE,FALSE,FALSE,FALSE,91,16.322,5480,6022,16.321,FALSE,4.092,4.088,4.093,4.085,0.015,FALSE,FALSE,53.388,85.9,85.9,85.9,0,3,0,15,10,16577,4250.52,,Idle,0,30,FALSE,10,TRUE,0,Go Home,39.96119394,-106.2164529,6.3,7867.6,1312.3,TRUE,1,1,FALSE,FALSE,FALSE,FALSE,0,FALSE,FALSE,FALSE,Course Lock,98.4,,9.8,Calm,4,Android, 4.2.16,DF061 - Phantom4Pro V2,11VKF5500202NZ,0BDDF5E00100LW,0WGUF3V00100DS,0DQAF5E03201ZU,447.4,4846.3,211.3,30.9,11.6,0,612,DF061 - Phantom4Pro V2,11VKF5500202NZ,0BDDF5E00100LW,0WGUF3V00100DS,0DQAF5E03201ZU,,Android, 4.2.16,,,,,,
