#,CUSTOM.date [local], CUSTOM.updateTime [local], OSD.flyTime, OSD.flyTime [s], OSD.latitude, OSD.longitude, OSD.height [ft], OSD.heightMax [ft], OSD.vpsHeight [ft], OSD.altitude [ft], OSD.hSpeed [MPH], OSD.hSpeedMax [MPH], OSD.xSpeed [MPH], OSD.xSpeedMax [MPH], OSD.ySpeed [MPH], OSD.ySpeedMax [MPH], OSD.zSpeed [MPH], OSD.zSpeedMax [MPH], OSD.pitch, OSD.roll, OSD.yaw, OSD.yaw [360], OSD.flycState, OSD.flycCommand, OSD.flightAction, OSD.gpsNum, OSD.gpsLevel, OSD.isGPSUsed, OSD.nonGPSCause, OSD.droneType, OSD.isSwaveWork, OSD.waveError, OSD.goHomeStatus, OSD.batteryType, OSD.ctrlDevice, OSD.isOnGround, OSD.isMotorOn, OSD.isMotorBlocked, OSD.motorStartFailedCause, OSD.motorFailReason, OSD.isImuPreheated, OSD.imuInitFailReason, OSD.isAcceletorOverRange, OSD.isBarometerDeadInAir, OSD.isCompassError, OSD.isGoHomeHeightModified, OSD.canIOCWork, OSD.isNotEnoughForce, OSD.isOutOfLimit, OSD.isPropellerCatapult, OSD.isVibrating, OSD.isVisionUsed, OSD.voltageWarning, GIMBAL.mode, GIMBAL.pitch, GIMBAL.roll, GIMBAL.yaw, GIMBAL.yaw [360], GIMBAL.isPitchAtLimit, GIMBAL.isRollAtLimit, GIMBAL.isYawAtLimit, GIMBAL.isStuck, CAMERA.isPhoto, CAMERA.isVideo, CAMERA.filename, CAMERA.sdCardIsInserted, CAMERA.sdCardState, RC.downlinkSignal, RC.uplinkSignal, RC.aileron, RC.elevator, RC.throttle, RC.rudder, RC.mode, RC.goHomeDepressed, RC.recordDepressed, RC.shutterDepressed, RC.playbackDepressed, RC.wheelDepressed, RC.wheelOffset, RC.custom1Depressed, RC.custom2Depressed, RC.custom3Depressed, RC.custom4Depressed, BATTERY.chargeLevel, BATTERY.currentPV [V], BATTERY.currentCapacity [mAh], BATTERY.fullCapacity [mAh], BATTERY.voltage [V], BATTERY.isCellVoltageEstimated, BATTERY.cellVoltage1 [V], BATTERY.cellVoltage2 [V], BATTERY.cellVoltage3 [V], BATTERY.cellVoltage4 [V], BATTERY.maxCellVoltageDeviation, BATTERY.isCellVoltageDeviationHigh, BATTERY.isVoltageLow, BATTERY.current [A], BATTERY.temperature [F], BATTERY.minTemperature [F], BATTERY.maxTemperature [F], BATTERY.usefulTime [s], BATTERY.goHomeTime [s], BATTERY.landTime [s], BATTERY.goHomeBattery, BATTERY.landBattery, BATTERY.safeFlyRadius, BATTERY.volumeConsume, BATTERY.status, BATTERY.goHomeStatus, BATTERY.goHomeCountdown, BATTERY.lowWarning, BATTERY.lowWarningGoHome, BATTERY.seriousLowWarning, BATTERY.seriousLowWarningLanding, BATTERY.timesCharged, MC.failSafeAction, HOME.latitude, HOME.longitude, HOME.distance [ft], HOME.height [ft], HOME.heightLimit [ft], HOME.isHomeRecord, HOME.goHomeMode, HOME.aircraftHeadDirection, HOME.isDynamicHomePointEnabled, HOME.isReachedLimitDistance, HOME.isReachedLimitHeight, HOME.isCompassCeleing, HOME.compassCeleStatus, HOME.isMultipleFlightModeEnabled, HOME.isBeginnerMode, HOME.isIOCEnabled, HOME.iocMode, HOME.goHomeHeight [ft], HOME.courseLockAngle, HOME.forceLandingHeight [ft], HOME.wind, HOME.dataRecorderFileIndex, RECOVER.appType, RECOVER.appVersion, RECOVER.aircraftName, RECOVER.aircraftSerial, RECOVER.cameraSerial, RECOVER.rcSerial, RECOVER.batterySerial, DETAILS.totalTime [s], DETAILS.totalDistance [ft], DETAILS.maxHeight [ft], DETAILS.maxHorizontalSpeed [MPH], DETAILS.maxVerticalSpeed [MPH], DETAILS.photoNum, DETAILS.videoTime [s], DETAILS.aircraftName, DETAILS.aircraftSerial, DETAILS.cameraSerial, DETAILS.rcSerial, DETAILS.batterySerial, DETAILS.appName, DETAILS.appType, DETAILS.appVersion, APPGPS.latitude, APPGPS.longitude, APPGPS.accuracy, APP.message, APP.tip, APP.warning
1,6/19/2018,0:57:21,0m 0.7s,0.7,39.96119665,-106.2164539,0,0,0.3,8128,0,0,0,0,0,0,0,0,0,0.7,-111.6,248.4,Starting Motors,Other (34),Takeoff (App Auto),15,5,TRUE,,Phantom 4 Pro V2,TRUE,FALSE,,Smart,RC,TRUE,TRUE,FALSE,,,TRUE,,FALSE,FALSE,FALSE,FALSE,FALSE,FALSE,FALSE,FALSE,FALSE,FALSE,0,Follow Yaw,0,0,-111.6,248.4,FALSE,FALSE,FALSE,FALSE,FALSE,FALSE,,TRUE,Normal,,,1024,1024,1024,1024,0,FALSE,FALSE,FALSE,FALSE,FALSE,0,FALSE,FALSE,FALSE,FALSE,37,15.179,2243,6064,15.181,FALSE,3.796,3.798,3.798,3.795,0.003,FALSE,FALSE,63.91,107.5,107.5,107.5,0,3,0,15,10,6333.5,1623.97,,Idle,0,30,FALSE,10,TRUE,0,Go Home,39.96120999,-106.21645,5,7854.1,1312.3,TRUE,1,1,FALSE,FALSE,FALSE,FALSE,0,FALSE,FALSE,FALSE,Course Lock,98.4,,9.8,Calm,5,Android, 4.2.16,DF062 - Phantom4Pro V2,11VKF4U00200CZ,0BDDF5F00100F7,0WGUF3V00100CX,0DQAF5H032053Y,366.9,8704.1,164.4,30.5,11.9,0,0,DF062 - Phantom4Pro V2,11VKF4U00200CZ,0BDDF5F00100F7,0WGUF3V00100CX,0DQAF5H032053Y,,Android, 4.2.16,,,,Data Recorder File Index is 5.,,
2,6/19/2018,0:57:21,0m 0.8s,0.8,39.96119667,-106.2164539,0,0,0.3,8128,0,0,0,0,0,0,0,0,0,0.7,-111.5,248.5,Starting Motors,Other (34),Takeoff (App Auto),15,5,TRUE,,Phantom 4 Pro V2,TRUE,FALSE,,Smart,RC,TRUE,TRUE,FALSE,,,TRUE,,FALSE,FALSE,FALSE,FALSE,FALSE,FALSE,FALSE,FALSE,FALSE,FALSE,0,Follow Yaw,0,0,-111.6,248.4,FALSE,FALSE,FALSE,FALSE,FALSE,FALSE,,TRUE,Normal,,,1024,1024,1024,1024,0,FALSE,FALSE,FALSE,FALSE,FALSE,0,FALSE,FALSE,FALSE,FALSE,37,15.179,2243,6064,15.181,FALSE,3.796,3.798,3.798,3.795,0.003,FALSE,FALSE,63.91,107.5,107.5,107.5,0,3,0,15,10,6333.5,1623.97,,Idle,0,30,FALSE,10,TRUE,0,Go Home,39.96120999,-106.21645,5,7854.1,1312.3,TRUE,1,1,FALSE,FALSE,FALSE,FALSE,0,FALSE,FALSE,FALSE,Course Lock,98.4,,9.8,Calm,5,Android, 4.2.16,DF062 - Phantom4Pro V2,11VKF4U00200CZ,0BDDF5F00100F7,0WGUF3V00100CX,0DQAF5H032053Y,366.9,8704.1,164.4,30.5,11.9,0,0,DF062 - Phantom4Pro V2,11VKF4U00200CZ,0BDDF5F00100F7,0WGUF3V00100CX,0DQAF5H032053Y,,Android, 4.2.16,,,,,,
3,6/19/2018,0:57:21,0m 0.9s,0.9,39.96119662,-106.2164538,0,0,0.3,8128,0,0,0,0,0,0,0,0,0.1,0.7,-111.6,248.4,Starting Motors,Other (34),Takeoff (App Auto),15,5,TRUE,,Phantom 4 Pro V2,TRUE,FALSE,,Smart,RC,TRUE,TRUE,FALSE,,,TRUE,,FALSE,FALSE,FALSE,FALSE,FALSE,FALSE,FALSE,FALSE,FALSE,FALSE,0,Follow Yaw,0,0,-111.6,248.4,FALSE,FALSE,FALSE,FALSE,FALSE,FALSE,,TRUE,Normal,,,1024,1024,1024,1024,0,FALSE,FALSE,FALSE,FALSE,FALSE,0,FALSE,FALSE,FALSE,FALSE,37,15.179,2243,6064,15.181,FALSE,3.796,3.798,3.798,3.795,0.003,FALSE,FALSE,63.91,107.5,107.5,107.5,0,3,0,15,10,6333.5,1623.97,,Idle,0,30,FALSE,10,TRUE,0,Go Home,39.96120999,-106.21645,5,7854.1,1312.3,TRUE,1,1,FALSE,FALSE,FALSE,FALSE,0,FALSE,FALSE,FALSE,Course Lock,98.4,,9.8,Calm,5,Android, 4.2.16,DF062 - Phantom4Pro V2,11VKF4U00200CZ,0BDDF5F00100F7,0WGUF3V00100CX,0DQAF5H032053Y,366.9,8704.1,164.4,30.5,11.9,0,0,DF062 - Phantom4Pro V2,11VKF4U00200CZ,0BDDF5F00100F7,0WGUF3V00100CX,0DQAF5H032053Y,,Android, 4.2.16,,,,,,
4,6/19/2018,0:57:21,0m 1.0s,1,39.96119662,-106.2164537,0,0,0.3,8128,0,0,0,0,0,0,0,0,0.1,0.8,-111.5,248.5,Starting Motors,Other (34),Takeoff (App Auto),15,5,TRUE,,Phantom 4 Pro V2,TRUE,FALSE,,Smart,RC,TRUE,TRUE,FALSE,,,TRUE,,FALSE,FALSE,FALSE,FALSE,FALSE,FALSE,FALSE,FALSE,FALSE,FALSE,0,Follow Yaw,0,0,-111.6,248.4,FALSE,FALSE,FALSE,FALSE,FALSE,FALSE,,TRUE,Normal,,,1024,1024,1024,1024,0,FALSE,FALSE,FALSE,FALSE,FALSE,0,FALSE,FALSE,FALSE,FALSE,37,15.179,2243,6064,15.181,FALSE,3.796,3.798,3.798,3.795,0.003,FALSE,FALSE,63.91,107.5,107.5,107.5,0,3,0,15,10,6333.5,1623.97,,Idle,0,30,FALSE,10,TRUE,0,Go Home,39.96120999,-106.21645,5,7854.1,1312.3,TRUE,1,1,FALSE,FALSE,FALSE,FALSE,0,FALSE,FALSE,FALSE,Course Lock,98.4,,9.8,Calm,5,Android, 4.2.16,DF062 - Phantom4Pro V2,11VKF4U00200CZ,0BDDF5F00100F7,0WGUF3V00100CX,0DQAF5H032053Y,366.9,8704.1,164.4,30.5,11.9,0,0,DF062 - Phantom4Pro V2,11VKF4U00200CZ,0BDDF5F00100F7,0WGUF3V00100CX,0DQAF5H032053Y,,Android, 4.2.16,,,,,,
5,6/19/2018,0:57:21,0m 1.1s,1.1,39.96119662,-106.2164538,0,0,0.3,8128,0,0,0,0,0,0,0,0,0.1,0.7,-111.6,248.4,Starting Motors,Other (34),Takeoff (App Auto),15,5,TRUE,,Phantom 4 Pro V2,TRUE,FALSE,,Smart,RC,TRUE,TRUE,FALSE,,,TRUE,,FALSE,FALSE,FALSE,FALSE,FALSE,FALSE,FALSE,FALSE,FALSE,FALSE,0,Follow Yaw,0,0,-111.6,248.4,FALSE,FALSE,FALSE,FALSE,FALSE,FALSE,,TRUE,Normal,,,1024,1024,1024,1024,0,FALSE,FALSE,FALSE,FALSE,FALSE,0,FALSE,FALSE,FALSE,FALSE,37,15.179,2243,6064,15.181,FALSE,3.796,3.798,3.798,3.795,0.003,FALSE,FALSE,63.91,107.5,107.5,107.5,0,3,0,15,10,6333.5,1623.97,,Idle,0,30,FALSE,10,TRUE,0,Go Home,39.96120999,-106.21645,5,7854.1,1312.3,TRUE,1,1,FALSE,FALSE,FALSE,FALSE,0,FALSE,FALSE,FALSE,Course Lock,98.4,,9.8,Calm,5,Android, 4.2.16,DF062 - Phantom4Pro V2,11VKF4U00200CZ,0BDDF5F00100F7,0WGUF3V00100CX,0DQAF5H032053Y,366.9,8704.1,164.4,30.5,11.9,0,0,DF062 - Phantom4Pro V2,11VKF4U00200CZ,0BDDF5F00100F7,0WGUF3V00100CX,0DQAF5H032053Y,,Android, 4.2.16,,,,,,
6,6/19/2018,0:57:22,0m 1.2s,1.2,39.96119662,-106.2164538,0,0,0.3,8128,0,0,0,0,0,0,0,0,0.1,0.8,-111.5,248.5,Starting Motors,Other (34),Takeoff (App Auto),15,5,TRUE,,Phantom 4 Pro V2,TRUE,FALSE,,Smart,RC,TRUE,TRUE,FALSE,,,TRUE,,FALSE,FALSE,FALSE,FALSE,FALSE,FALSE,FALSE,FALSE,FALSE,FALSE,0,Follow Yaw,0,0,-111.6,248.4,FALSE,FALSE,FALSE,FALSE,FALSE,FALSE,,TRUE,Normal,,,1024,1024,1024,1024,0,FALSE,FALSE,FALSE,FALSE,FALSE,0,FALSE,FALSE,FALSE,FALSE,37,15.179,2243,6064,15.181,FALSE,3.796,3.798,3.798,3.795,0.003,FALSE,FALSE,63.91,107.5,107.5,107.5,0,3,0,15,10,6333.5,1623.97,,Idle,0,30,FALSE,10,TRUE,0,Go Home,39.96120999,-106.21645,5,7854.1,1312.3,TRUE,1,1,FALSE,FALSE,FALSE,FALSE,0,FALSE,FALSE,FALSE,Course Lock,98.4,,9.8,Calm,5,Android, 4.2.16,DF062 - Phantom4Pro V2,11VKF4U00200CZ,0BDDF5F00100F7,0WGUF3V00100CX,0DQAF5H032053Y,366.9,8704.1,164.4,30.5,11.9,0,0,DF062 - Phantom4Pro V2,11VKF4U00200CZ,0BDDF5F00100F7,0WGUF3V00100CX,0DQAF5H032053Y,,Android, 4.2.16,,,,,,
7,6/19/2018,0:57:22,0m 1.3s,1.3,39.96119655,-106.2164539,0,0,0.3,8128,0,0,0,0,0,0,0,0,0.1,0.8,-111.5,248.5,Starting Motors,Other (34),Takeoff (App Auto),15,5,TRUE,,Phantom 4 Pro V2,TRUE,FALSE,,Smart,RC,TRUE,TRUE,FALSE,,,TRUE,,FALSE,FALSE,FALSE,FALSE,FALSE,FALSE,FALSE,FALSE,FALSE,FALSE,0,Follow Yaw,0,0,-111.6,248.4,FALSE,FALSE,FALSE,FALSE,FALSE,FALSE,,TRUE,Normal,,,1024,1024,1024,1024,0,FALSE,FALSE,FALSE,FALSE,FALSE,0,FALSE,FALSE,FALSE,FALSE,37,15.179,2243,6064,15.181,FALSE,3.796,3.798,3.798,3.795,0.003,FALSE,FALSE,63.91,107.5,107.5,107.5,0,3,0,15,10,6333.5,1623.97,,Idle,0,30,FALSE,10,TRUE,0,Go Home,39.96120999,-106.21645,5,7854.1,1312.3,TRUE,1,1,FALSE,FALSE,FALSE,FALSE,0,FALSE,FALSE,FALSE,Course Lock,98.4,,9.8,Calm,5,Android, 4.2.16,DF062 - Phantom4Pro V2,11VKF4U00200CZ,0BDDF5F00100F7,0WGUF3V00100CX,0DQAF5H032053Y,366.9,8704.1,164.4,30.5,11.9,0,0,DF062 - Phantom4Pro V2,11VKF4U00200CZ,0BDDF5F00100F7,0WGUF3V00100CX,0DQAF5H032053Y,,Android, 4.2.16,,,,,,
8,6/19/2018,0:57:22,0m 1.4s,1.4,39.96119655,-106.216454,0,0,0.3,8128,0,0,0,0,0,0,0,0,0.1,0.8,-111.5,248.5,Starting Motors,Other (34),Takeoff (App Auto),15,5,TRUE,,Phantom 4 Pro V2,TRUE,FALSE,,Smart,RC,TRUE,TRUE,FALSE,,,TRUE,,FALSE,FALSE,FALSE,FALSE,FALSE,FALSE,FALSE,FALSE,FALSE,FALSE,0,Follow Yaw,0,0,-111.6,248.4,FALSE,FALSE,FALSE,FALSE,FALSE,FALSE,,TRUE,Normal,,,1024,1024,1024,1024,0,FALSE,FALSE,FALSE,FALSE,FALSE,0,FALSE,FALSE,FALSE,FALSE,37,15.179,2243,6064,15.181,FALSE,3.796,3.798,3.798,3.795,0.003,FALSE,FALSE,63.91,107.5,107.5,107.5,0,3,0,15,10,6333.5,1623.97,,Idle,0,30,FALSE,10,TRUE,0,Go Home,39.96120999,-106.21645,5,7854.1,1312.3,TRUE,1,1,FALSE,FALSE,FALSE,FALSE,0,FALSE,FALSE,FALSE,Course Lock,98.4,,9.8,Calm,5,Android, 4.2.16,DF062 - Phantom4Pro V2,11VKF4U00200CZ,0BDDF5F00100F7,0WGUF3V00100CX,0DQAF5H032053Y,366.9,8704.1,164.4,30.5,11.9,0,0,DF062 - Phantom4Pro V2,11VKF4U00200CZ,0BDDF5F00100F7,0WGUF3V00100CX,0DQAF5H032053Y,,Android, 4.2.16,,,,,,
9,6/19/2018,0:57:22,0m 1.5s,1.5,39.96119655,-106.216454,0,0,0.3,8128,0,0,0,0,0,0,0,0,0.1,0.8,-111.6,248.4,Auto Takeoff,Other (34),Takeoff (App Auto),15,5,TRUE,,Phantom 4 Pro V2,TRUE,FALSE,,Smart,RC,TRUE,TRUE,FALSE,,,TRUE,,FALSE,FALSE,FALSE,FALSE,FALSE,FALSE,FALSE,FALSE,FALSE,FALSE,0,Follow Yaw,0,0,-111.6,248.4,FALSE,FALSE,FALSE,FALSE,FALSE,FALSE,,TRUE,Normal,,,1024,1024,1024,1024,0,FALSE,FALSE,FALSE,FALSE,FALSE,0,FALSE,FALSE,FALSE,FALSE,37,15.179,2243,6064,15.181,FALSE,3.796,3.798,3.798,3.795,0.003,FALSE,FALSE,63.91,107.5,107.5,107.5,0,3,0,15,10,6333.5,1623.97,,Idle,0,30,FALSE,10,TRUE,0,Go Home,39.96120999,-106.21645,5,7854.1,1312.3,TRUE,1,1,FALSE,FALSE,FALSE,FALSE,0,FALSE,FALSE,FALSE,Course Lock,98.4,,9.8,Calm,5,Android, 4.2.16,DF062 - Phantom4Pro V2,11VKF4U00200CZ,0BDDF5F00100F7,0WGUF3V00100CX,0DQAF5H032053Y,366.9,8704.1,164.4,30.5,11.9,0,0,DF062 - Phantom4Pro V2,11VKF4U00200CZ,0BDDF5F00100F7,0WGUF3V00100CX,0DQAF5H032053Y,,Android, 4.2.16,,,,,,
10,6/19/2018,0:57:22,0m 1.6s,1.6,39.96119655,-106.2164541,0,0,0.3,8128,0,0,0,0,0,0,0,0,0.1,0.8,-111.6,248.4,Auto Takeoff,Other (34),Takeoff (App Auto),15,5,TRUE,,Phantom 4 Pro V2,TRUE,FALSE,,Smart,RC,TRUE,TRUE,FALSE,,,TRUE,,FALSE,FALSE,FALSE,FALSE,FALSE,FALSE,FALSE,FALSE,FALSE,FALSE,0,Follow Yaw,0,0,-111.6,248.4,FALSE,FALSE,FALSE,FALSE,FALSE,FALSE,,TRUE,Normal,,,1024,1024,1024,1024,0,FALSE,FALSE,FALSE,FALSE,FALSE,0,FALSE,FALSE,FALSE,FALSE,37,15.179,2243,6064,15.181,FALSE,3.796,3.798,3.798,3.795,0.003,FALSE,FALSE,63.91,107.5,107.5,107.5,0,3,0,15,10,6333.5,1623.97,,Idle,0,30,FALSE,10,TRUE,0,Go Home,39.96120999,-106.21645,5,7854.1,1312.3,TRUE,1,1,FALSE,FALSE,FALSE,FALSE,0,FALSE,FALSE,FALSE,Course Lock,98.4,,9.8,Calm,5,Android, 4.2.16,DF062 - Phantom4Pro V2,11VKF4U00200CZ,0BDDF5F00100F7,0WGUF3V00100CX,0DQAF5H032053Y,366.9,8704.1,164.4,30.5,11.9,0,0,DF062 - Phantom4Pro V2,11VKF4U00200CZ,0BDDF5F00100F7,0WGUF3V00100CX,0DQAF5H032053Y,,Android, 4.2.16,,,,,,
11,6/19/2018,0:57:22,0m 1.7s,1.7,39.96119653,-106.2164541,0,0,0.3,8128,0,0,0,0,0,0,0,0,0.1,0.8,-111.6,248.4,Auto Takeoff,Other (34),Takeoff (App Auto),15,5,TRUE,,Phantom 4 Pro V2,TRUE,FALSE,,Smart,RC,TRUE,TRUE,FALSE,,,TRUE,,FALSE,FALSE,FALSE,FALSE,FALSE,FALSE,FALSE,FALSE,FALSE,FALSE,0,Follow Yaw,0,0,-111.6,248.4,FALSE,FALSE,FALSE,FALSE,FALSE,FALSE,,TRUE,Normal,,,1024,1024,1024,1024,0,FALSE,FALSE,FALSE,FALSE,FALSE,0,FALSE,FALSE,FALSE,FALSE,37,15.178,2243,6064,15.176,FALSE,3.788,3.79,3.789,3.788,0.003,FALSE,FALSE,60.964,107.5,107.5,107.5,0,3,0,15,10,6565.7,1683.51,,Idle,0,30,FALSE,10,TRUE,0,Go Home,39.96120999,-106.21645,5.1,7854.1,1312.3,TRUE,1,1,FALSE,FALSE,FALSE,FALSE,0,FALSE,FALSE,FALSE,Course Lock,98.4,,9.8,Calm,5,Android, 4.2.16,DF062 - Phantom4Pro V2,11VKF4U00200CZ,0BDDF5F00100F7,0WGUF3V00100CX,0DQAF5H032053Y,366.9,8704.1,164.4,30.5,11.9,0,0,DF062 - Phantom4Pro V2,11VKF4U00200CZ,0BDDF5F00100F7,0WGUF3V00100CX,0DQAF5H032053Y,,Android, 4.2.16,,,,,,
12,6/19/2018,0:57:22,0m 1.8s,1.8,39.96119654,-106.2164542,0,0,0.3,8128,0,0,0,0,0,0,0,0,0,0.9,-111.5,248.5,Auto Takeoff,Other (34),Takeoff (App Auto),15,5,TRUE,,Phantom 4 Pro V2,TRUE,FALSE,,Smart,RC,TRUE,TRUE,FALSE,,,TRUE,,FALSE,FALSE,FALSE,FALSE,FALSE,FALSE,FALSE,FALSE,FALSE,FALSE,0,Follow Yaw,0,0,-111.6,248.4,FALSE,FALSE,FALSE,FALSE,FALSE,FALSE,,TRUE,Normal,,,1024,1024,1024,1024,0,FALSE,FALSE,FALSE,FALSE,FALSE,0,FALSE,FALSE,FALSE,FALSE,37,15.178,2243,6064,15.176,FALSE,3.788,3.79,3.789,3.788,0.003,FALSE,FALSE,60.964,107.5,107.5,107.5,0,3,0,15,10,6565.7,1683.51,,Idle,0,30,FALSE,10,TRUE,0,Go Home,39.96120999,-106.21645,5,7854.1,1312.3,TRUE,1,1,FALSE,FALSE,FALSE,FALSE,0,FALSE,FALSE,FALSE,Course Lock,98.4,,9.8,Calm,5,Android, 4.2.16,DF062 - Phantom4Pro V2,11VKF4U00200CZ,0BDDF5F00100F7,0WGUF3V00100CX,0DQAF5H032053Y,366.9,8704.1,164.4,30.5,11.9,0,0,DF062 - Phantom4Pro V2,11VKF4U00200CZ,0BDDF5F00100F7,0WGUF3V00100CX,0DQAF5H032053Y,,Android, 4.2.16,,,,,,
13,6/19/2018,0:57:22,0m 1.9s,1.9,39.96119655,-106.2164541,0,0,0.3,8128,0,0,0,0,0,0,0,0,0.1,1,-111.6,248.4,Auto Takeoff,Other (34),Takeoff (App Auto),15,5,TRUE,,Phantom 4 Pro V2,TRUE,FALSE,,Smart,RC,TRUE,TRUE,FALSE,,,TRUE,,FALSE,FALSE,FALSE,FALSE,FALSE,FALSE,FALSE,FALSE,FALSE,FALSE,0,Follow Yaw,0,0,-111.6,248.4,FALSE,FALSE,FALSE,FALSE,FALSE,FALSE,,TRUE,Normal,,,1024,1024,1024,1024,0,FALSE,FALSE,FALSE,FALSE,FALSE,0,FALSE,FALSE,FALSE,FALSE,37,15.178,2243,6064,15.176,FALSE,3.788,3.79,3.789,3.788,0.003,FALSE,FALSE,60.964,107.5,107.5,107.5,0,3,0,15,10,6565.7,1683.51,,Idle,0,30,FALSE,10,TRUE,0,Go Home,39.96120999,-106.21645,5,7854.1,1312.3,TRUE,1,1,FALSE,FALSE,FALSE,FALSE,0,FALSE,FALSE,FALSE,Course Lock,98.4,,9.8,Calm,5,Android, 4.2.16,DF062 - Phantom4Pro V2,11VKF4U00200CZ,0BDDF5F00100F7,0WGUF3V00100CX,0DQAF5H032053Y,366.9,8704.1,164.4,30.5,11.9,0,0,DF062 - Phantom4Pro V2,11VKF4U00200CZ,0BDDF5F00100F7,0WGUF3V00100CX,0DQAF5H032053Y,,Android, 4.2.16,,,,,,
14,6/19/2018,0:57:22,0m 2.0s,2,39.96119655,-106.2164541,0,0,0.3,8128,0,0,0,0,0,0,0,0,0.1,1.1,-111.6,248.4,Auto Takeoff,Other (34),Takeoff (App Auto),15,5,TRUE,,Phantom 4 Pro V2,TRUE,FALSE,,Smart,RC,TRUE,TRUE,FALSE,,,TRUE,,FALSE,FALSE,FALSE,FALSE,FALSE,FALSE,FALSE,FALSE,FALSE,FALSE,0,Follow Yaw,0,0,-111.6,248.4,FALSE,FALSE,FALSE,FALSE,FALSE,FALSE,,TRUE,Normal,,,1024,1024,1024,1024,0,FALSE,FALSE,FALSE,FALSE,FALSE,0,FALSE,FALSE,FALSE,FALSE,37,15.178,2243,6064,15.176,FALSE,3.788,3.79,3.789,3.788,0.003,FALSE,FALSE,60.964,107.5,107.5,107.5,0,3,0,15,10,6565.7,1683.51,,Idle,0,30,FALSE,10,TRUE,0,Go Home,39.96120999,-106.21645,5,7854.1,1312.3,TRUE,1,1,FALSE,FALSE,FALSE,FALSE,0,FALSE,FALSE,FALSE,Course Lock,98.4,,9.8,Calm,5,Android, 4.2.16,DF062 - Phantom4Pro V2,11VKF4U00200CZ,0BDDF5F00100F7,0WGUF3V00100CX,0DQAF5H032053Y,366.9,8704.1,164.4,30.5,11.9,0,0,DF062 - Phantom4Pro V2,11VKF4U00200CZ,0BDDF5F00100F7,0WGUF3V00100CX,0DQAF5H032053Y,,Android, 4.2.16,,,,,,
15,6/19/2018,0:57:22,0m 2.1s,2.1,39.96119657,-106.2164541,0,0,0.3,8128,0,0,0,0,0,0,0,0,0.2,1.3,-111.5,248.5,Auto Takeoff,Other (34),Takeoff (App Auto),15,5,TRUE,,Phantom 4 Pro V2,TRUE,FALSE,,Smart,RC,TRUE,TRUE,FALSE,,,TRUE,,FALSE,FALSE,FALSE,FALSE,FALSE,FALSE,FALSE,FALSE,FALSE,FALSE,0,Follow Yaw,0,0,-111.6,248.4,FALSE,FALSE,FALSE,FALSE,FALSE,FALSE,,TRUE,Normal,,,1024,1024,1024,1024,0,FALSE,FALSE,FALSE,FALSE,FALSE,0,FALSE,FALSE,FALSE,FALSE,37,15.178,2243,6064,15.176,FALSE,3.788,3.79,3.789,3.788,0.003,FALSE,FALSE,60.964,107.5,107.5,107.5,0,3,0,15,10,6565.7,1683.51,,Idle,0,30,FALSE,10,TRUE,0,Go Home,39.96120999,-106.21645,5,7854.1,1312.3,TRUE,1,1,FALSE,FALSE,FALSE,FALSE,0,FALSE,FALSE,FALSE,Course Lock,98.4,,9.8,Calm,5,Android, 4.2.16,DF062 - Phantom4Pro V2,11VKF4U00200CZ,0BDDF5F00100F7,0WGUF3V00100CX,0DQAF5H032053Y,366.9,8704.1,164.4,30.5,11.9,0,0,DF062 - Phantom4Pro V2,11VKF4U00200CZ,0BDDF5F00100F7,0WGUF3V00100CX,0DQAF5H032053Y,,Android, 4.2.16,,,,,,
16,6/19/2018,0:57:23,0m 2.2s,2.2,39.96119655,-106.2164541,0,0,0.3,8128,0,0,0,0,0,0,0,0,0.3,1.4,-111.5,248.5,Auto Takeoff,Other (34),Takeoff (App Auto),15,5,TRUE,,Phantom 4 Pro V2,TRUE,FALSE,,Smart,RC,TRUE,TRUE,FALSE,,,TRUE,,FALSE,FALSE,FALSE,FALSE,FALSE,FALSE,FALSE,FALSE,FALSE,FALSE,0,Follow Yaw,0,0,-111.6,248.4,FALSE,FALSE,FALSE,FALSE,FALSE,FALSE,,TRUE,Normal,,,1024,1024,1024,1024,0,FALSE,FALSE,FALSE,FALSE,FALSE,0,FALSE,FALSE,FALSE,FALSE,37,15.178,2243,6064,15.176,FALSE,3.788,3.79,3.789,3.788,0.003,FALSE,FALSE,60.964,107.5,107.5,107.5,0,3,0,15,10,6565.7,1683.51,,Idle,0,30,FALSE,10,TRUE,0,Go Home,39.96120999,-106.21645,5,7854.1,1312.3,TRUE,1,1,FALSE,FALSE,FALSE,FALSE,0,FALSE,FALSE,FALSE,Course Lock,98.4,,9.8,Calm,5,Android, 4.2.16,DF062 - Phantom4Pro V2,11VKF4U00200CZ,0BDDF5F00100F7,0WGUF3V00100CX,0DQAF5H032053Y,366.9,8704.1,164.4,30.5,11.9,0,0,DF062 - Phantom4Pro V2,11VKF4U00200CZ,0BDDF5F00100F7,0WGUF3V00100CX,0DQAF5H032053Y,,Android, 4.2.16,,,,,,
17,6/19/2018,0:57:23,0m 2.3s,2.3,39.96119657,-106.2164541,0,0,0.3,8128,0,0,0,0,0,0,0,0,0.9,1.8,-111.5,248.5,Auto Takeoff,Other (34),Takeoff (App Auto),15,5,TRUE,,Phantom 4 Pro V2,TRUE,FALSE,,Smart,RC,TRUE,TRUE,FALSE,,,TRUE,,FALSE,FALSE,FALSE,FALSE,FALSE,FALSE,FALSE,FALSE,FALSE,FALSE,0,Follow Yaw,0,0,-111.6,248.4,FALSE,FALSE,FALSE,FALSE,FALSE,FALSE,,TRUE,Normal,,,1024,1024,1024,1024,0,FALSE,FALSE,FALSE,FALSE,FALSE,0,FALSE,FALSE,FALSE,FALSE,37,15.178,2243,6064,15.176,FALSE,3.788,3.79,3.789,3.788,0.003,FALSE,FALSE,60.964,107.5,107.5,107.5,0,3,0,15,10,6565.7,1683.51,,Idle,0,30,FALSE,10,TRUE,0,Go Home,39.96120999,-106.21645,5,7854.1,1312.3,TRUE,1,1,FALSE,FALSE,FALSE,FALSE,0,FALSE,FALSE,FALSE,Course Lock,98.4,,9.8,Calm,5,Android, 4.2.16,DF062 - Phantom4Pro V2,11VKF4U00200CZ,0BDDF5F00100F7,0WGUF3V00100CX,0DQAF5H032053Y,366.9,8704.1,164.4,30.5,11.9,0,0,DF062 - Phantom4Pro V2,11VKF4U00200CZ,0BDDF5F00100F7,0WGUF3V00100CX,0DQAF5H032053Y,,Android, 4.2.16,,,,,,
18,6/19/2018,0:57:23,0m 2.4s,2.4,39.9611966,-106.2164541,0,0,0.3,8128,1.1,1.1,0,0,0,0,0,0,2.6,2.5,-111.3,248.7,Auto Takeoff,Other (34),Takeoff (App Auto),15,5,TRUE,,Phantom 4 Pro V2,TRUE,FALSE,,Smart,RC,TRUE,TRUE,FALSE,,,TRUE,,FALSE,FALSE,FALSE,FALSE,FALSE,FALSE,FALSE,FALSE,FALSE,FALSE,0,Follow Yaw,0,0,-111.6,248.4,FALSE,FALSE,FALSE,FALSE,FALSE,FALSE,,TRUE,Normal,,,1024,1024,1024,1024,0,FALSE,FALSE,FALSE,FALSE,FALSE,0,FALSE,FALSE,FALSE,FALSE,37,15.178,2243,6064,15.176,FALSE,3.788,3.79,3.789,3.788,0.003,FALSE,FALSE,60.964,107.5,107.5,107.5,0,3,0,15,10,6565.7,1683.51,,Idle,0,30,FALSE,10,TRUE,0,Go Home,39.96120999,-106.21645,5,7854.1,1312.3,TRUE,1,1,FALSE,FALSE,FALSE,FALSE,0,FALSE,FALSE,FALSE,Course Lock,98.4,,9.8,Calm,5,Android, 4.2.16,DF062 - Phantom4Pro V2,11VKF4U00200CZ,0BDDF5F00100F7,0WGUF3V00100CX,0DQAF5H032053Y,366.9,8704.1,164.4,30.5,11.9,0,0,DF062 - Phantom4Pro V2,11VKF4U00200CZ,0BDDF5F00100F7,0WGUF3V00100CX,0DQAF5H032053Y,,Android, 4.2.16,,,,,,
19,6/19/2018,0:57:23,0m 2.5s,2.5,39.96119667,-106.2164541,0,0,0.3,8128,0,1.1,0.2,0.2,0,0,0,0,5.1,2.6,-111.1,248.9,Auto Takeoff,Other (34),Takeoff (App Auto),15,5,TRUE,,Phantom 4 Pro V2,TRUE,FALSE,,Smart,RC,TRUE,TRUE,FALSE,,,TRUE,,FALSE,FALSE,FALSE,FALSE,FALSE,FALSE,FALSE,FALSE,FALSE,FALSE,0,Follow Yaw,0,0,-111.6,248.4,FALSE,FALSE,FALSE,FALSE,FALSE,FALSE,,TRUE,Normal,,,1024,1024,1024,1024,0,FALSE,FALSE,FALSE,FALSE,FALSE,0,FALSE,FALSE,FALSE,FALSE,37,15.178,2243,6064,15.176,FALSE,3.788,3.79,3.789,3.788,0.003,FALSE,FALSE,60.964,107.5,107.5,107.5,0,3,0,15,10,6565.7,1683.51,,Idle,0,30,FALSE,10,TRUE,0,Go Home,39.96120999,-106.21645,5,7854.1,1312.3,TRUE,1,1,FALSE,FALSE,FALSE,FALSE,0,FALSE,FALSE,FALSE,Course Lock,98.4,,9.8,Calm,5,Android, 4.2.16,DF062 - Phantom4Pro V2,11VKF4U00200CZ,0BDDF5F00100F7,0WGUF3V00100CX,0DQAF5H032053Y,366.9,8704.1,164.4,30.5,11.9,0,0,DF062 - Phantom4Pro V2,11VKF4U00200CZ,0BDDF5F00100F7,0WGUF3V00100CX,0DQAF5H032053Y,,Android, 4.2.16,,,,,,
20,6/19/2018,0:57:23,0m 2.6s,2.6,39.96119678,-106.216454,0,0,0.3,8128,0,1.1,0.5,0.5,0.2,0.2,-0.5,0,5.5,2.3,-111.1,248.9,Auto Takeoff,Other (34),Takeoff (App Auto),15,5,TRUE,,Phantom 4 Pro V2,TRUE,FALSE,,Smart,RC,FALSE,TRUE,FALSE,,,TRUE,,FALSE,FALSE,FALSE,FALSE,FALSE,FALSE,FALSE,FALSE,FALSE,FALSE,0,Follow Yaw,0,0,-111.6,248.4,FALSE,FALSE,FALSE,FALSE,FALSE,FALSE,,TRUE,Normal,,,1024,1024,1024,1024,0,FALSE,FALSE,FALSE,FALSE,FALSE,0,FALSE,FALSE,FALSE,FALSE,37,15.178,2243,6064,15.176,FALSE,3.788,3.79,3.789,3.788,0.003,FALSE,FALSE,60.964,107.5,107.5,107.5,0,3,0,15,10,6565.7,1683.51,,Idle,0,30,FALSE,10,TRUE,0,Go Home,39.96120999,-106.21645,4.9,7854.1,1312.3,TRUE,1,1,FALSE,FALSE,FALSE,FALSE,0,FALSE,FALSE,FALSE,Course Lock,98.4,,9.8,Calm,5,Android, 4.2.16,DF062 - Phantom4Pro V2,11VKF4U00200CZ,0BDDF5F00100F7,0WGUF3V00100CX,0DQAF5H032053Y,366.9,8704.1,164.4,30.5,11.9,0,0,DF062 - Phantom4Pro V2,11VKF4U00200CZ,0BDDF5F00100F7,0WGUF3V00100CX,0DQAF5H032053Y,,Android, 4.2.16,,,,,,
21,6/19/2018,0:57:23,0m 2.7s,2.7,39.961197,-106.2164538,0,0,0.7,8128,0,1.1,0.5,0.5,0.5,0.5,-0.9,0,1.2,-0.8,-111.4,248.6,Auto Takeoff,Other (34),Takeoff (App Auto),15,5,TRUE,,Phantom 4 Pro V2,TRUE,FALSE,,Smart,RC,FALSE,TRUE,FALSE,,,TRUE,,FALSE,FALSE,FALSE,FALSE,FALSE,FALSE,FALSE,FALSE,FALSE,FALSE,0,Follow Yaw,0,0,-111.6,248.4,FALSE,FALSE,FALSE,FALSE,FALSE,FALSE,,TRUE,Normal,,,1024,1024,1024,1024,0,FALSE,FALSE,FALSE,FALSE,FALSE,0,FALSE,FALSE,FALSE,FALSE,37,15.099,2243,6064,15.098,FALSE,3.788,3.79,3.789,3.788,0.003,FALSE,FALSE,60.964,107.5,107.5,107.5,0,0,0,15,10,7388.8,1894.57,,Idle,0,30,FALSE,10,TRUE,0,Go Home,39.96119672,-106.216454,0,7854.1,1312.3,TRUE,1,1,FALSE,FALSE,FALSE,FALSE,0,FALSE,FALSE,FALSE,Course Lock,98.4,,9.8,Calm,5,Android, 4.2.16,DF062 - Phantom4Pro V2,11VKF4U00200CZ,0BDDF5F00100F7,0WGUF3V00100CX,0DQAF5H032053Y,366.9,8704.1,164.4,30.5,11.9,0,0,DF062 - Phantom4Pro V2,11VKF4U00200CZ,0BDDF5F00100F7,0WGUF3V00100CX,0DQAF5H032053Y,,Android, 4.2.16,,,,Home Point Updated.,Home Point recorded. Return-to-Home Altitude:98FT.,
22,6/19/2018,0:57:23,0m 2.8s,2.8,39.96119723,-106.2164535,0,0,0.7,8128,0,1.1,0.5,0.5,0.7,0.7,-1.1,0,-1.6,-1.8,-111,249,Auto Takeoff,Other (34),Takeoff (App Auto),15,5,TRUE,,Phantom 4 Pro V2,TRUE,FALSE,,Smart,RC,FALSE,TRUE,FALSE,,,TRUE,,FALSE,FALSE,FALSE,FALSE,FALSE,FALSE,FALSE,FALSE,FALSE,FALSE,0,Follow Yaw,0,0,-111.6,248.4,FALSE,FALSE,FALSE,FALSE,FALSE,FALSE,,TRUE,Normal,,,1024,1024,1024,1024,0,FALSE,FALSE,FALSE,FALSE,FALSE,0,FALSE,FALSE,FALSE,FALSE,37,15.099,2243,6064,15.098,FALSE,3.788,3.79,3.789,3.788,0.003,FALSE,FALSE,60.964,107.5,107.5,107.5,0,0,0,15,10,7388.8,1894.57,,Idle,0,30,FALSE,10,TRUE,0,Go Home,39.96119672,-106.216454,0,7854.1,1312.3,TRUE,1,1,FALSE,FALSE,FALSE,FALSE,0,FALSE,FALSE,FALSE,Course Lock,98.4,,9.8,Calm,5,Android, 4.2.16,DF062 - Phantom4Pro V2,11VKF4U00200CZ,0BDDF5F00100F7,0WGUF3V00100CX,0DQAF5H032053Y,366.9,8704.1,164.4,30.5,11.9,0,0,DF062 - Phantom4Pro V2,11VKF4U00200CZ,0BDDF5F00100F7,0WGUF3V00100CX,0DQAF5H032053Y,,Android, 4.2.16,,,,,,
23,6/19/2018,0:57:23,0m 2.9s,2.9,39.96119747,-106.2164532,0.3,0.3,1,8128,0,1.1,0.5,0.5,0.7,0.7,-1.1,0,-3.7,0.4,-110.9,249.1,Auto Takeoff,Other (34),Takeoff (App Auto),15,5,TRUE,,Phantom 4 Pro V2,TRUE,FALSE,,Smart,RC,FALSE,TRUE,FALSE,,,TRUE,,FALSE,FALSE,FALSE,FALSE,FALSE,FALSE,FALSE,FALSE,FALSE,FALSE,0,Follow Yaw,0,0,-111.6,248.4,FALSE,FALSE,FALSE,FALSE,FALSE,FALSE,,TRUE,Normal,,,1024,1024,1024,1024,0,FALSE,FALSE,FALSE,FALSE,FALSE,0,FALSE,FALSE,FALSE,FALSE,37,15.099,2243,6064,15.098,FALSE,3.788,3.79,3.789,3.788,0.003,FALSE,FALSE,60.964,107.5,107.5,107.5,0,0,0,15,10,7388.8,1894.57,,Idle,0,30,FALSE,10,TRUE,0,Go Home,39.96119672,-106.216454,0,7854.1,1312.3,TRUE,1,1,FALSE,FALSE,FALSE,FALSE,0,FALSE,FALSE,FALSE,Course Lock,98.4,,9.8,Calm,5,Android, 4.2.16,DF062 - Phantom4Pro V2,11VKF4U00200CZ,0BDDF5F00100F7,0WGUF3V00100CX,0DQAF5H032053Y,366.9,8704.1,164.4,30.5,11.9,0,0,DF062 - Phantom4Pro V2,11VKF4U00200CZ,0BDDF5F00100F7,0WGUF3V00100CX,0DQAF5H032053Y,,Android, 4.2.16,,,,,,
24,6/19/2018,0:57:23,0m 3.0s,3,39.96119776,-106.2164529,0.7,0.7,1,8129,1.5,1.5,0.5,0.5,0.5,0.7,-1.1,0,-4,1,-110.8,249.2,Auto Takeoff,Other (34),Takeoff (App Auto),15,5,TRUE,,Phantom 4 Pro V2,TRUE,FALSE,,Smart,RC,FALSE,TRUE,FALSE,,,TRUE,,FALSE,FALSE,FALSE,FALSE,FALSE,FALSE,FALSE,FALSE,FALSE,FALSE,0,Follow Yaw,0,0,-111.6,248.4,FALSE,FALSE,FALSE,FALSE,FALSE,FALSE,,TRUE,Normal,,,1024,1024,1024,1024,0,FALSE,FALSE,FALSE,FALSE,FALSE,0,FALSE,FALSE,FALSE,FALSE,37,15.099,2243,6064,15.098,FALSE,3.788,3.79,3.789,3.788,0.003,FALSE,FALSE,60.964,107.5,107.5,107.5,0,0,0,15,10,7388.8,1894.57,,Idle,0,30,FALSE,10,TRUE,0,Go Home,39.96119672,-106.216454,0.4,7854.1,1312.3,TRUE,1,1,FALSE,FALSE,FALSE,FALSE,0,FALSE,FALSE,FALSE,Course Lock,98.4,,9.8,Calm,5,Android, 4.2.16,DF062 - Phantom4Pro V2,11VKF4U00200CZ,0BDDF5F00100F7,0WGUF3V00100CX,0DQAF5H032053Y,366.9,8704.1,164.4,30.5,11.9,0,0,DF062 - Phantom4Pro V2,11VKF4U00200CZ,0BDDF5F00100F7,0WGUF3V00100CX,0DQAF5H032053Y,,Android, 4.2.16,,,,,,
25,6/19/2018,0:57:23,0m 3.1s,3.1,39.96119802,-106.2164525,0.7,0.7,1.3,8129,0,1.5,0.5,0.5,0.5,0.7,-1.1,0,-4.1,-1.2,-110.9,249.1,Auto Takeoff,Other (34),Takeoff (App Auto),15,5,TRUE,,Phantom 4 Pro V2,TRUE,FALSE,,Smart,RC,FALSE,TRUE,FALSE,,,TRUE,,FALSE,FALSE,FALSE,FALSE,FALSE,FALSE,FALSE,FALSE,FALSE,FALSE,0,Follow Yaw,0,0,-111.6,248.4,FALSE,FALSE,FALSE,FALSE,FALSE,FALSE,,TRUE,Normal,,,1024,1024,1024,1024,0,FALSE,FALSE,FALSE,FALSE,FALSE,0,FALSE,FALSE,FALSE,FALSE,37,15.099,2243,6064,15.098,FALSE,3.788,3.79,3.789,3.788,0.003,FALSE,FALSE,60.964,107.5,107.5,107.5,0,0,0,15,10,7388.8,1894.57,,Idle,0,30,FALSE,10,TRUE,0,Go Home,39.96119672,-106.216454,0.6,7854.1,1312.3,TRUE,1,1,FALSE,FALSE,FALSE,FALSE,0,FALSE,FALSE,FALSE,Course Lock,98.4,,9.8,Calm,5,Android, 4.2.16,DF062 - Phantom4Pro V2,11VKF4U00200CZ,0BDDF5F00100F7,0WGUF3V00100CX,0DQAF5H032053Y,366.9,8704.1,164.4,30.5,11.9,0,0,DF062 - Phantom4Pro V2,11VKF4U00200CZ,0BDDF5F00100F7,0WGUF3V00100CX,0DQAF5H032053Y,,Android, 4.2.16,,,,,,
26,6/19/2018,0:57:23,0m 3.2s,3.2,39.96119825,-106.2164521,1,1,1.3,8129,1.5,1.5,0.5,0.5,0.5,0.7,-1.1,0,-4.2,-2.3,-111.1,248.9,Auto Takeoff,Other (34),Takeoff (App Auto),15,5,TRUE,,Phantom 4 Pro V2,TRUE,FALSE,,Smart,RC,FALSE,TRUE,FALSE,,,TRUE,,FALSE,FALSE,FALSE,FALSE,FALSE,FALSE,FALSE,FALSE,FALSE,FALSE,0,Follow Yaw,0,0,-111.6,248.4,FALSE,FALSE,FALSE,FALSE,FALSE,FALSE,,TRUE,Normal,,,1024,1024,1024,1024,0,FALSE,FALSE,FALSE,FALSE,FALSE,0,FALSE,FALSE,FALSE,FALSE,37,15.099,2243,6064,15.098,FALSE,3.788,3.79,3.789,3.788,0.003,FALSE,FALSE,60.964,107.5,107.5,107.5,0,0,0,15,10,7388.8,1894.57,,Idle,0,30,FALSE,10,TRUE,0,Go Home,39.96119672,-106.216454,0.8,7854.1,1312.3,TRUE,1,1,FALSE,FALSE,FALSE,FALSE,0,FALSE,FALSE,FALSE,Course Lock,98.4,,9.8,Calm,5,Android, 4.2.16,DF062 - Phantom4Pro V2,11VKF4U00200CZ,0BDDF5F00100F7,0WGUF3V00100CX,0DQAF5H032053Y,366.9,8704.1,164.4,30.5,11.9,0,0,DF062 - Phantom4Pro V2,11VKF4U00200CZ,0BDDF5F00100F7,0WGUF3V00100CX,0DQAF5H032053Y,,Android, 4.2.16,,,,,,
27,6/19/2018,0:57:24,0m 3.3s,3.3,39.96119841,-106.2164518,1,1,1.6,8129,1.5,1.5,0.5,0.5,0.5,0.7,-1.1,0,-4.4,-2.6,-111.1,248.9,Auto Takeoff,Other (34),Takeoff (App Auto),15,5,TRUE,,Phantom 4 Pro V2,TRUE,FALSE,,Smart,RC,FALSE,TRUE,FALSE,,,TRUE,,FALSE,FALSE,FALSE,FALSE,FALSE,FALSE,FALSE,FALSE,FALSE,FALSE,0,Follow Yaw,0,0,-111.6,248.4,FALSE,FALSE,FALSE,FALSE,FALSE,FALSE,,TRUE,Normal,,,1024,1024,1024,1024,0,FALSE,FALSE,FALSE,FALSE,FALSE,0,FALSE,FALSE,FALSE,FALSE,37,15.099,2243,6064,15.098,FALSE,3.788,3.79,3.789,3.788,0.003,FALSE,FALSE,60.964,107.5,107.5,107.5,0,0,0,15,10,7388.8,1894.57,,Idle,0,30,FALSE,10,TRUE,0,Go Home,39.96119672,-106.216454,0.9,7854.1,1312.3,TRUE,1,1,FALSE,FALSE,FALSE,FALSE,0,FALSE,FALSE,FALSE,Course Lock,98.4,,9.8,Calm,5,Android, 4.2.16,DF062 - Phantom4Pro V2,11VKF4U00200CZ,0BDDF5F00100F7,0WGUF3V00100CX,0DQAF5H032053Y,366.9,8704.1,164.4,30.5,11.9,0,0,DF062 - Phantom4Pro V2,11VKF4U00200CZ,0BDDF5F00100F7,0WGUF3V00100CX,0DQAF5H032053Y,,Android, 4.2.16,,,,,,
28,6/19/2018,0:57:24,0m 3.4s,3.4,39.96119817,-106.2164512,1.3,1.3,1.6,8129,0,1.5,0.2,0.5,0.2,0.7,-1.1,0,-4.7,-3,-111,249,Auto Takeoff,Other (34),Takeoff (App Auto),15,5,TRUE,,Phantom 4 Pro V2,TRUE,FALSE,,Smart,RC,FALSE,TRUE,FALSE,,,TRUE,,FALSE,FALSE,FALSE,FALSE,FALSE,FALSE,FALSE,FALSE,FALSE,FALSE,0,Follow Yaw,0,0,-111.6,248.4,FALSE,FALSE,FALSE,FALSE,FALSE,FALSE,,TRUE,Normal,,,1024,1024,1024,1024,0,FALSE,FALSE,FALSE,FALSE,FALSE,0,FALSE,FALSE,FALSE,FALSE,37,15.099,2243,6064,15.098,FALSE,3.788,3.79,3.789,3.788,0.003,FALSE,FALSE,60.964,107.5,107.5,107.5,0,0,0,15,10,7388.8,1894.57,,Idle,0,30,FALSE,10,TRUE,0,Go Home,39.96119672,-106.216454,0.9,7854.1,1312.3,TRUE,1,1,FALSE,FALSE,FALSE,FALSE,0,FALSE,FALSE,FALSE,Course Lock,98.4,,9.8,Calm,5,Android, 4.2.16,DF062 - Phantom4Pro V2,11VKF4U00200CZ,0BDDF5F00100F7,0WGUF3V00100CX,0DQAF5H032053Y,366.9,8704.1,164.4,30.5,11.9,0,0,DF062 - Phantom4Pro V2,11VKF4U00200CZ,0BDDF5F00100F7,0WGUF3V00100CX,0DQAF5H032053Y,,Android, 4.2.16,,,,,,
29,6/19/2018,0:57:24,0m 3.5s,3.5,39.96119815,-106.2164509,1.3,1.3,2,8129,1.5,1.5,0,0.5,0.2,0.7,-1.1,0,-4.6,-2.5,-110.9,249.1,Auto Takeoff,Other (34),Takeoff (App Auto),15,5,TRUE,,Phantom 4 Pro V2,TRUE,FALSE,,Smart,RC,FALSE,TRUE,FALSE,,,TRUE,,FALSE,FALSE,FALSE,FALSE,FALSE,FALSE,FALSE,FALSE,FALSE,FALSE,0,Follow Yaw,0,0,-111.6,248.4,FALSE,FALSE,FALSE,FALSE,FALSE,FALSE,,TRUE,Normal,,,1024,1024,1024,1024,0,FALSE,FALSE,FALSE,FALSE,FALSE,0,FALSE,FALSE,FALSE,FALSE,37,15.099,2243,6064,15.098,FALSE,3.788,3.79,3.789,3.788,0.003,FALSE,FALSE,60.964,107.5,107.5,107.5,0,0,0,15,10,7388.8,1894.57,,Idle,0,30,FALSE,10,TRUE,0,Go Home,39.96119672,-106.216454,1,7854.1,1312.3,TRUE,1,1,FALSE,FALSE,FALSE,FALSE,0,FALSE,FALSE,FALSE,Course Lock,98.4,,9.8,Calm,5,Android, 4.2.16,DF062 - Phantom4Pro V2,11VKF4U00200CZ,0BDDF5F00100F7,0WGUF3V00100CX,0DQAF5H032053Y,366.9,8704.1,164.4,30.5,11.9,0,0,DF062 - Phantom4Pro V2,11VKF4U00200CZ,0BDDF5F00100F7,0WGUF3V00100CX,0DQAF5H032053Y,,Android, 4.2.16,,,,,,
30,6/19/2018,0:57:24,0m 3.6s,3.6,39.96119809,-106.2164506,1.6,1.6,2.3,8130,0,1.5,0,0.5,0.2,0.7,-1.1,0,-3.6,-1.5,-110.8,249.2,Auto Takeoff,Other (34),Takeoff (App Auto),15,5,TRUE,,Phantom 4 Pro V2,TRUE,FALSE,,Smart,RC,FALSE,TRUE,FALSE,,,TRUE,,FALSE,FALSE,FALSE,FALSE,FALSE,FALSE,FALSE,FALSE,FALSE,FALSE,0,Follow Yaw,0,0,-111.5,248.5,FALSE,FALSE,FALSE,FALSE,FALSE,FALSE,,TRUE,Normal,,,1024,1024,1024,1024,0,FALSE,FALSE,FALSE,FALSE,FALSE,0,FALSE,FALSE,FALSE,FALSE,37,15.099,2243,6064,15.098,FALSE,3.788,3.79,3.789,3.788,0.003,FALSE,FALSE,60.964,107.5,107.5,107.5,0,0,0,15,10,7388.8,1894.57,,Idle,0,30,FALSE,10,TRUE,0,Go Home,39.96119672,-106.216454,1.1,7854.1,1312.3,TRUE,1,1,FALSE,FALSE,FALSE,FALSE,0,FALSE,FALSE,FALSE,Course Lock,98.4,,9.8,Calm,5,Android, 4.2.16,DF062 - Phantom4Pro V2,11VKF4U00200CZ,0BDDF5F00100F7,0WGUF3V00100CX,0DQAF5H032053Y,366.9,8704.1,164.4,30.5,11.9,0,0,DF062 - Phantom4Pro V2,11VKF4U00200CZ,0BDDF5F00100F7,0WGUF3V00100CX,0DQAF5H032053Y,,Android, 4.2.16,,,,,,
31,6/19/2018,0:57:24,0m 3.7s,3.7,39.96119799,-106.2164503,1.6,1.6,2.3,8130,0,1.5,0,0.5,0.2,0.7,-1.1,0,-3,-0.6,-110.9,249.1,Auto Takeoff,Other (34),Takeoff (App Auto),15,5,TRUE,,Phantom 4 Pro V2,TRUE,FALSE,,Smart,RC,FALSE,TRUE,FALSE,,,TRUE,,FALSE,FALSE,FALSE,FALSE,FALSE,FALSE,FALSE,FALSE,FALSE,FALSE,0,Follow Yaw,0,0,-111.5,248.5,FALSE,FALSE,FALSE,FALSE,FALSE,FALSE,,TRUE,Normal,,,1024,1024,1024,1024,0,FALSE,FALSE,FALSE,FALSE,FALSE,0,FALSE,FALSE,FALSE,FALSE,37,15.057,2243,6064,15.051,FALSE,3.756,3.765,3.764,3.75,0.015,FALSE,FALSE,54.41,107.5,107.5,107.5,0,0,0,15,10,9268.9,2376.65,,Idle,0,30,FALSE,10,TRUE,0,Go Home,39.96119672,-106.216454,1.1,7854.1,1312.3,TRUE,1,1,FALSE,FALSE,FALSE,FALSE,0,FALSE,FALSE,FALSE,Course Lock,98.4,,9.8,Calm,5,Android, 4.2.16,DF062 - Phantom4Pro V2,11VKF4U00200CZ,0BDDF5F00100F7,0WGUF3V00100CX,0DQAF5H032053Y,366.9,8704.1,164.4,30.5,11.9,0,0,DF062 - Phantom4Pro V2,11VKF4U00200CZ,0BDDF5F00100F7,0WGUF3V00100CX,0DQAF5H032053Y,,Android, 4.2.16,,,,,,
32,6/19/2018,0:57:24,0m 3.8s,3.8,39.96119789,-106.21645,2,2,2.3,8130,0,1.5,0,0.5,0.2,0.7,-1.1,0,-2.7,-0.8,-111,249,Auto Takeoff,Other (34),Takeoff (App Auto),15,5,TRUE,,Phantom 4 Pro V2,TRUE,FALSE,,Smart,RC,FALSE,TRUE,FALSE,,,TRUE,,FALSE,FALSE,FALSE,FALSE,FALSE,FALSE,FALSE,FALSE,FALSE,FALSE,0,Follow Yaw,0,0,-111.5,248.5,FALSE,FALSE,FALSE,FALSE,FALSE,FALSE,,TRUE,Normal,,,1024,1024,1024,1024,0,FALSE,FALSE,FALSE,FALSE,FALSE,0,FALSE,FALSE,FALSE,FALSE,37,15.057,2243,6064,15.051,FALSE,3.756,3.765,3.764,3.75,0.015,FALSE,FALSE,54.41,107.5,107.5,107.5,0,0,0,15,10,9268.9,2376.65,,Idle,0,30,FALSE,10,TRUE,0,Go Home,39.96119672,-106.216454,1.2,7854.1,1312.3,TRUE,1,1,FALSE,FALSE,FALSE,FALSE,0,FALSE,FALSE,FALSE,Course Lock,98.4,,9.8,Calm,5,Android, 4.2.16,DF062 - Phantom4Pro V2,11VKF4U00200CZ,0BDDF5F00100F7,0WGUF3V00100CX,0DQAF5H032053Y,366.9,8704.1,164.4,30.5,11.9,0,0,DF062 - Phantom4Pro V2,11VKF4U00200CZ,0BDDF5F00100F7,0WGUF3V00100CX,0DQAF5H032053Y,,Android, 4.2.16,,,,,,
33,6/19/2018,0:57:24,0m 3.9s,3.9,39.96119764,-106.2164499,2,2,2.6,8130,0,1.5,0,0.5,0.2,0.7,-1.1,0,-2.2,0.5,-111,249,Auto Takeoff,Other (34),Takeoff (App Auto),15,5,TRUE,,Phantom 4 Pro V2,TRUE,FALSE,,Smart,RC,FALSE,TRUE,FALSE,,,TRUE,,FALSE,FALSE,FALSE,FALSE,FALSE,FALSE,FALSE,FALSE,FALSE,FALSE,0,Follow Yaw,0,0,-111.5,248.5,FALSE,FALSE,FALSE,FALSE,FALSE,FALSE,,TRUE,Normal,,,1024,1024,1024,1024,0,FALSE,FALSE,FALSE,FALSE,FALSE,0,FALSE,FALSE,FALSE,FALSE,37,15.057,2243,6064,15.051,FALSE,3.756,3.765,3.764,3.75,0.015,FALSE,FALSE,54.41,107.5,107.5,107.5,0,0,0,15,10,9268.9,2376.65,,Idle,0,30,FALSE,10,TRUE,0,Go Home,39.96119672,-106.216454,1.2,7854.1,1312.3,TRUE,1,1,FALSE,FALSE,FALSE,FALSE,0,FALSE,FALSE,FALSE,Course Lock,98.4,,9.8,Calm,5,Android, 4.2.16,DF062 - Phantom4Pro V2,11VKF4U00200CZ,0BDDF5F00100F7,0WGUF3V00100CX,0DQAF5H032053Y,366.9,8704.1,164.4,30.5,11.9,0,0,DF062 - Phantom4Pro V2,11VKF4U00200CZ,0BDDF5F00100F7,0WGUF3V00100CX,0DQAF5H032053Y,,Android, 4.2.16,,,,,,
34,6/19/2018,0:57:24,0m 4.0s,4,39.96119761,-106.2164498,2.3,2.3,3,8130,0,1.5,0,0.5,0.2,0.7,-1.1,0,-2.5,0.6,-111.1,248.9,Auto Takeoff,Other (34),Takeoff (App Auto),15,5,TRUE,,Phantom 4 Pro V2,TRUE,FALSE,,Smart,RC,FALSE,TRUE,FALSE,,,TRUE,,FALSE,FALSE,FALSE,FALSE,FALSE,FALSE,FALSE,FALSE,FALSE,FALSE,0,Follow Yaw,0,0,-111.5,248.5,FALSE,FALSE,FALSE,FALSE,FALSE,FALSE,,TRUE,Normal,,,1024,1024,1024,1024,0,FALSE,FALSE,FALSE,FALSE,FALSE,0,FALSE,FALSE,FALSE,FALSE,37,15.057,2243,6064,15.051,FALSE,3.756,3.765,3.764,3.75,0.015,FALSE,FALSE,54.41,107.5,107.5,107.5,0,0,0,15,10,9268.9,2376.65,,Idle,0,30,FALSE,10,TRUE,0,Go Home,39.96119672,-106.216454,1.2,7854.1,1312.3,TRUE,1,1,FALSE,FALSE,FALSE,FALSE,0,FALSE,FALSE,FALSE,Course Lock,98.4,,9.8,Calm,5,Android, 4.2.16,DF062 - Phantom4Pro V2,11VKF4U00200CZ,0BDDF5F00100F7,0WGUF3V00100CX,0DQAF5H032053Y,366.9,8704.1,164.4,30.5,11.9,0,0,DF062 - Phantom4Pro V2,11VKF4U00200CZ,0BDDF5F00100F7,0WGUF3V00100CX,0DQAF5H032053Y,,Android, 4.2.16,,,,,,
35,6/19/2018,0:57:24,0m 4.1s,4.1,39.96119768,-106.2164495,2.3,2.3,3,8130,0,1.5,0.2,0.5,0.2,0.7,-1.1,0,-3.8,0,-111.2,248.8,Auto Takeoff,Other (34),Takeoff (App Auto),15,5,TRUE,,Phantom 4 Pro V2,TRUE,FALSE,,Smart,RC,FALSE,TRUE,FALSE,,,TRUE,,FALSE,FALSE,FALSE,FALSE,FALSE,FALSE,FALSE,FALSE,FALSE,FALSE,0,Follow Yaw,0,0,-111.5,248.5,FALSE,FALSE,FALSE,FALSE,FALSE,FALSE,,TRUE,Normal,,,1024,1024,1024,1024,0,FALSE,FALSE,FALSE,FALSE,FALSE,0,FALSE,FALSE,FALSE,FALSE,37,15.057,2243,6064,15.051,FALSE,3.756,3.765,3.764,3.75,0.015,FALSE,FALSE,54.41,107.5,107.5,107.5,0,0,0,15,10,9268.9,2376.65,,Idle,0,30,FALSE,10,TRUE,0,Go Home,39.96119672,-106.216454,1.2,7854.1,1312.3,TRUE,1,1,FALSE,FALSE,FALSE,FALSE,0,FALSE,FALSE,FALSE,Course Lock,98.4,,9.8,Calm,5,Android, 4.2.16,DF062 - Phantom4Pro V2,11VKF4U00200CZ,0BDDF5F00100F7,0WGUF3V00100CX,0DQAF5H032053Y,366.9,8704.1,164.4,30.5,11.9,0,0,DF062 - Phantom4Pro V2,11VKF4U00200CZ,0BDDF5F00100F7,0WGUF3V00100CX,0DQAF5H032053Y,,Android, 4.2.16,,,,,,
36,6/19/2018,0:57:24,0m 4.2s,4.2,39.96119779,-106.2164493,2.6,2.6,3,8131,0,1.5,0.2,0.5,0.2,0.7,-1.1,0,-3.7,-0.8,-111.5,248.5,Auto Takeoff,Other (34),Takeoff (App Auto),15,5,TRUE,,Phantom 4 Pro V2,TRUE,FALSE,,Smart,RC,FALSE,TRUE,FALSE,,,TRUE,,FALSE,FALSE,FALSE,FALSE,FALSE,FALSE,FALSE,FALSE,FALSE,FALSE,0,Follow Yaw,0,0,-111.5,248.5,FALSE,FALSE,FALSE,FALSE,FALSE,FALSE,,TRUE,Normal,,,1024,1024,1024,1024,0,FALSE,FALSE,FALSE,FALSE,FALSE,0,FALSE,FALSE,FALSE,FALSE,37,15.057,2243,6064,15.051,FALSE,3.756,3.765,3.764,3.75,0.015,FALSE,FALSE,54.41,107.5,107.5,107.5,0,0,0,15,10,9268.9,2376.65,,Idle,0,30,FALSE,10,TRUE,0,Go Home,39.96119672,-106.216454,1.4,7854.1,1312.3,TRUE,1,1,FALSE,FALSE,FALSE,FALSE,0,FALSE,FALSE,FALSE,Course Lock,98.4,,9.8,Calm,5,Android, 4.2.16,DF062 - Phantom4Pro V2,11VKF4U00200CZ,0BDDF5F00100F7,0WGUF3V00100CX,0DQAF5H032053Y,366.9,8704.1,164.4,30.5,11.9,0,0,DF062 - Phantom4Pro V2,11VKF4U00200CZ,0BDDF5F00100F7,0WGUF3V00100CX,0DQAF5H032053Y,,Android, 4.2.16,,,,,,
37,6/19/2018,0:57:25,0m 4.3s,4.3,39.96119808,-106.216449,3,3,3.3,8131,0,1.5,0.2,0.5,0.5,0.7,-1.1,0,-4.1,-2.8,-111.7,248.3,Auto Takeoff,Other (34),Takeoff (App Auto),15,5,TRUE,,Phantom 4 Pro V2,TRUE,FALSE,,Smart,RC,FALSE,TRUE,FALSE,,,TRUE,,FALSE,FALSE,FALSE,FALSE,FALSE,FALSE,FALSE,FALSE,FALSE,FALSE,0,Follow Yaw,0,0,-111.5,248.5,FALSE,FALSE,FALSE,FALSE,FALSE,FALSE,,TRUE,Normal,,,1024,1024,1024,1024,0,FALSE,FALSE,FALSE,FALSE,FALSE,0,FALSE,FALSE,FALSE,FALSE,37,15.057,2243,6064,15.051,FALSE,3.756,3.765,3.764,3.75,0.015,FALSE,FALSE,54.41,107.5,107.5,107.5,0,0,0,15,10,9268.9,2376.65,,Idle,0,30,FALSE,10,TRUE,0,Go Home,39.96119672,-106.216454,1.5,7854.1,1312.3,TRUE,1,1,FALSE,FALSE,FALSE,FALSE,0,FALSE,FALSE,FALSE,Course Lock,98.4,,9.8,Calm,5,Android, 4.2.16,DF062 - Phantom4Pro V2,11VKF4U00200CZ,0BDDF5F00100F7,0WGUF3V00100CX,0DQAF5H032053Y,366.9,8704.1,164.4,30.5,11.9,0,0,DF062 - Phantom4Pro V2,11VKF4U00200CZ,0BDDF5F00100F7,0WGUF3V00100CX,0DQAF5H032053Y,,Android, 4.2.16,,,,,,
38,6/19/2018,0:57:25,0m 4.4s,4.4,39.9611982,-106.2164488,3,3,3.3,8131,0,1.5,0.2,0.5,0.5,0.7,-1.1,0,-5.2,-1.6,-111.6,248.4,Auto Takeoff,Other (34),Takeoff (App Auto),15,5,TRUE,,Phantom 4 Pro V2,TRUE,FALSE,,Smart,RC,FALSE,TRUE,FALSE,,,TRUE,,FALSE,FALSE,FALSE,FALSE,FALSE,FALSE,FALSE,FALSE,FALSE,FALSE,0,Follow Yaw,0,0,-111.5,248.5,FALSE,FALSE,FALSE,FALSE,FALSE,FALSE,,TRUE,Normal,,,1024,1024,1024,1024,0,FALSE,FALSE,FALSE,FALSE,FALSE,0,FALSE,FALSE,FALSE,FALSE,37,15.057,2243,6064,15.051,FALSE,3.756,3.765,3.764,3.75,0.015,FALSE,FALSE,54.41,107.5,107.5,107.5,0,0,0,15,10,9268.9,2376.65,,Idle,0,30,FALSE,10,TRUE,0,Go Home,39.96119672,-106.216454,1.5,7854.1,1312.3,TRUE,1,1,FALSE,FALSE,FALSE,FALSE,0,FALSE,FALSE,FALSE,Course Lock,98.4,,9.8,Calm,5,Android, 4.2.16,DF062 - Phantom4Pro V2,11VKF4U00200CZ,0BDDF5F00100F7,0WGUF3V00100CX,0DQAF5H032053Y,366.9,8704.1,164.4,30.5,11.9,0,0,DF062 - Phantom4Pro V2,11VKF4U00200CZ,0BDDF5F00100F7,0WGUF3V00100CX,0DQAF5H032053Y,,Android, 4.2.16,,,,,,
39,6/19/2018,0:57:25,0m 4.5s,4.5,39.96119839,-106.2164485,3.3,3.3,3.6,8131,0,1.5,0.2,0.5,0.5,0.7,-1.1,0,-6.3,-0.2,-111.4,248.6,Auto Takeoff,Other (34),Takeoff (App Auto),15,5,TRUE,,Phantom 4 Pro V2,TRUE,FALSE,,Smart,RC,FALSE,TRUE,FALSE,,,TRUE,,FALSE,FALSE,FALSE,FALSE,FALSE,FALSE,FALSE,FALSE,FALSE,FALSE,0,Follow Yaw,0,0,-111.5,248.5,FALSE,FALSE,FALSE,FALSE,FALSE,FALSE,,TRUE,Normal,,,1024,1024,1024,1024,0,FALSE,FALSE,FALSE,FALSE,FALSE,0,FALSE,FALSE,FALSE,FALSE,37,15.057,2243,6064,15.051,FALSE,3.756,3.765,3.764,3.75,0.015,FALSE,FALSE,54.41,107.5,107.5,107.5,0,0,0,15,10,9268.9,2376.65,,Idle,0,30,FALSE,10,TRUE,0,Go Home,39.96119672,-106.216454,1.6,7854.1,1312.3,TRUE,1,1,FALSE,FALSE,FALSE,FALSE,0,FALSE,FALSE,FALSE,Course Lock,98.4,,9.8,Calm,5,Android, 4.2.16,DF062 - Phantom4Pro V2,11VKF4U00200CZ,0BDDF5F00100F7,0WGUF3V00100CX,0DQAF5H032053Y,366.9,8704.1,164.4,30.5,11.9,0,0,DF062 - Phantom4Pro V2,11VKF4U00200CZ,0BDDF5F00100F7,0WGUF3V00100CX,0DQAF5H032053Y,,Android, 4.2.16,,,,,,
40,6/19/2018,0:57:25,0m 4.6s,4.6,39.96119856,-106.2164483,3.6,3.6,3.6,8132,0,1.5,0.2,0.5,0.5,0.7,-1.1,0,-6.6,-0.5,-111.2,248.8,Auto Takeoff,Other (34),Takeoff (App Auto),15,5,TRUE,,Phantom 4 Pro V2,TRUE,FALSE,,Smart,RC,FALSE,TRUE,FALSE,,,TRUE,,FALSE,FALSE,FALSE,FALSE,FALSE,FALSE,FALSE,FALSE,FALSE,FALSE,0,Follow Yaw,0,0,-111.5,248.5,FALSE,FALSE,FALSE,FALSE,FALSE,FALSE,,TRUE,Normal,,,1024,1024,1024,1024,0,FALSE,FALSE,FALSE,FALSE,FALSE,0,FALSE,FALSE,FALSE,FALSE,37,15.057,2243,6064,15.051,FALSE,3.756,3.765,3.764,3.75,0.015,FALSE,FALSE,54.41,107.5,107.5,107.5,0,0,0,15,10,9268.9,2376.65,,Idle,0,30,FALSE,10,TRUE,0,Go Home,39.96119672,-106.216454,1.7,7854.1,1312.3,TRUE,1,1,FALSE,FALSE,FALSE,FALSE,0,FALSE,FALSE,FALSE,Course Lock,98.4,,9.8,Calm,5,Android, 4.2.16,DF062 - Phantom4Pro V2,11VKF4U00200CZ,0BDDF5F00100F7,0WGUF3V00100CX,0DQAF5H032053Y,366.9,8704.1,164.4,30.5,11.9,0,0,DF062 - Phantom4Pro V2,11VKF4U00200CZ,0BDDF5F00100F7,0WGUF3V00100CX,0DQAF5H032053Y,,Android, 4.2.16,,,,,,
41,6/19/2018,0:57:25,0m 4.7s,4.7,39.96119873,-106.2164481,3.9,3.9,3.9,8132,0,1.5,0.2,0.5,0.2,0.7,-1.3,0,-6,-0.4,-111.2,248.8,Auto Takeoff,Other (34),Takeoff (App Auto),15,5,TRUE,,Phantom 4 Pro V2,TRUE,FALSE,,Smart,RC,FALSE,TRUE,FALSE,,,TRUE,,FALSE,FALSE,FALSE,FALSE,FALSE,FALSE,FALSE,FALSE,FALSE,FALSE,0,Follow Yaw,0,0,-111.5,248.5,FALSE,FALSE,FALSE,FALSE,FALSE,FALSE,,TRUE,Normal,,,1024,1024,1024,1024,0,FALSE,FALSE,FALSE,FALSE,FALSE,0,FALSE,FALSE,FALSE,FALSE,37,14.924,2243,6064,14.925,FALSE,3.742,3.753,3.754,3.742,0.015,FALSE,FALSE,52.24,107.5,107.5,107.5,0,1,0,15,10,12872.5,3300.65,,Idle,0,30,FALSE,10,TRUE,0,Go Home,39.96119672,-106.216454,1.8,7854.1,1312.3,TRUE,1,1,FALSE,FALSE,FALSE,FALSE,0,FALSE,FALSE,FALSE,Course Lock,98.4,,9.8,Calm,5,Android, 4.2.16,DF062 - Phantom4Pro V2,11VKF4U00200CZ,0BDDF5F00100F7,0WGUF3V00100CX,0DQAF5H032053Y,366.9,8704.1,164.4,30.5,11.9,0,0,DF062 - Phantom4Pro V2,11VKF4U00200CZ,0BDDF5F00100F7,0WGUF3V00100CX,0DQAF5H032053Y,,Android, 4.2.16,,,,,,
42,6/19/2018,0:57:25,0m 4.8s,4.8,39.9611988,-106.2164479,4.3,4.3,4.3,8132,0,1.5,0.2,0.5,0.2,0.7,-1.3,0,-5.3,-2.6,-111.3,248.7,Auto Takeoff,Other (34),Takeoff (App Auto),15,5,TRUE,,Phantom 4 Pro V2,TRUE,FALSE,,Smart,RC,FALSE,TRUE,FALSE,,,TRUE,,FALSE,FALSE,FALSE,FALSE,FALSE,FALSE,FALSE,FALSE,FALSE,FALSE,0,Follow Yaw,0,0,-111.5,248.5,FALSE,FALSE,FALSE,FALSE,FALSE,FALSE,,TRUE,Normal,,,1024,1024,1024,1024,0,FALSE,FALSE,FALSE,FALSE,FALSE,0,FALSE,FALSE,FALSE,FALSE,37,14.924,2243,6064,14.925,FALSE,3.742,3.753,3.754,3.742,0.015,FALSE,FALSE,52.24,107.5,107.5,107.5,0,1,0,15,10,12872.5,3300.65,,Idle,0,30,FALSE,10,TRUE,0,Go Home,39.96119672,-106.216454,1.9,7854.1,1312.3,TRUE,1,1,FALSE,FALSE,FALSE,FALSE,0,FALSE,FALSE,FALSE,Course Lock,98.4,,9.8,Calm,5,Android, 4.2.16,DF062 - Phantom4Pro V2,11VKF4U00200CZ,0BDDF5F00100F7,0WGUF3V00100CX,0DQAF5H032053Y,366.9,8704.1,164.4,30.5,11.9,0,0,DF062 - Phantom4Pro V2,11VKF4U00200CZ,0BDDF5F00100F7,0WGUF3V00100CX,0DQAF5H032053Y,,Android, 4.2.16,,,,,,
43,6/19/2018,0:57:25,0m 4.9s,4.9,39.96119884,-106.2164477,4.6,4.6,4.3,8133,0,1.5,0.2,0.5,0,0.7,-1.1,0,-5.8,-1.6,-111.5,248.5,Auto Takeoff,Other (34),Takeoff (App Auto),15,5,TRUE,,Phantom 4 Pro V2,TRUE,FALSE,,Smart,RC,FALSE,TRUE,FALSE,,,TRUE,,FALSE,FALSE,FALSE,FALSE,FALSE,FALSE,FALSE,FALSE,FALSE,FALSE,0,Follow Yaw,0,0,-111.5,248.5,FALSE,FALSE,FALSE,FALSE,FALSE,FALSE,,TRUE,Normal,,,1024,1024,1024,1024,0,FALSE,FALSE,FALSE,FALSE,FALSE,0,FALSE,FALSE,FALSE,FALSE,37,14.924,2243,6064,14.925,FALSE,3.742,3.753,3.754,3.742,0.015,FALSE,FALSE,52.24,107.5,107.5,107.5,0,1,0,15,10,12872.5,3300.65,,Idle,0,30,FALSE,10,TRUE,0,Go Home,39.96119672,-106.216454,1.9,7854.1,1312.3,TRUE,1,1,FALSE,FALSE,FALSE,FALSE,0,FALSE,FALSE,FALSE,Course Lock,98.4,,9.8,Calm,5,Android, 4.2.16,DF062 - Phantom4Pro V2,11VKF4U00200CZ,0BDDF5F00100F7,0WGUF3V00100CX,0DQAF5H032053Y,366.9,8704.1,164.4,30.5,11.9,0,0,DF062 - Phantom4Pro V2,11VKF4U00200CZ,0BDDF5F00100F7,0WGUF3V00100CX,0DQAF5H032053Y,,Android, 4.2.16,,,,,,
44,6/19/2018,0:57:25,0m 5.0s,5,39.96119886,-106.2164475,4.6,4.6,4.6,8133,0,1.5,0.2,0.5,0,0.7,-0.9,0,-5.8,-0.9,-111.3,248.7,Auto Takeoff,Other (34),Takeoff (App Auto),15,5,TRUE,,Phantom 4 Pro V2,TRUE,FALSE,,Smart,RC,FALSE,TRUE,FALSE,,,TRUE,,FALSE,FALSE,FALSE,FALSE,FALSE,FALSE,FALSE,FALSE,FALSE,FALSE,0,Follow Yaw,0,0,-111.5,248.5,FALSE,FALSE,FALSE,FALSE,FALSE,FALSE,,TRUE,Normal,,,1024,1024,1024,1024,0,FALSE,FALSE,FALSE,FALSE,FALSE,0,FALSE,FALSE,FALSE,FALSE,37,14.924,2243,6064,14.925,FALSE,3.742,3.753,3.754,3.742,0.015,FALSE,FALSE,52.24,107.5,107.5,107.5,0,1,0,15,10,12872.5,3300.65,,Idle,0,30,FALSE,10,TRUE,0,Go Home,39.96119672,-106.216454,1.9,7854.1,1312.3,TRUE,1,1,FALSE,FALSE,FALSE,FALSE,0,FALSE,FALSE,FALSE,Course Lock,98.4,,9.8,Calm,5,Android, 4.2.16,DF062 - Phantom4Pro V2,11VKF4U00200CZ,0BDDF5F00100F7,0WGUF3V00100CX,0DQAF5H032053Y,366.9,8704.1,164.4,30.5,11.9,0,0,DF062 - Phantom4Pro V2,11VKF4U00200CZ,0BDDF5F00100F7,0WGUF3V00100CX,0DQAF5H032053Y,,Android, 4.2.16,,,,,,
45,6/19/2018,0:57:25,0m 5.1s,5.1,39.96119871,-106.2164473,4.6,4.6,4.6,8133,0,1.5,0.2,0.5,0.2,0.7,-0.9,0,-5.2,-1.4,-111.1,248.9,Auto Takeoff,Other (34),Takeoff (App Auto),15,5,TRUE,,Phantom 4 Pro V2,TRUE,FALSE,,Smart,RC,FALSE,TRUE,FALSE,,,TRUE,,FALSE,FALSE,FALSE,FALSE,FALSE,FALSE,FALSE,FALSE,FALSE,FALSE,0,Follow Yaw,0,0,-111.5,248.5,FALSE,FALSE,FALSE,FALSE,FALSE,FALSE,,TRUE,Normal,,,1024,1024,1024,1024,0,FALSE,FALSE,FALSE,FALSE,FALSE,0,FALSE,FALSE,FALSE,FALSE,37,14.924,2243,6064,14.925,FALSE,3.742,3.753,3.754,3.742,0.015,FALSE,FALSE,52.24,107.5,107.5,107.5,0,1,0,15,10,12872.5,3300.65,,Idle,0,30,FALSE,10,TRUE,0,Go Home,39.96119672,-106.216454,2,7854.1,1312.3,TRUE,1,1,FALSE,FALSE,FALSE,FALSE,0,FALSE,FALSE,FALSE,Course Lock,98.4,,9.8,Calm,5,Android, 4.2.16,DF062 - Phantom4Pro V2,11VKF4U00200CZ,0BDDF5F00100F7,0WGUF3V00100CX,0DQAF5H032053Y,366.9,8704.1,164.4,30.5,11.9,0,0,DF062 - Phantom4Pro V2,11VKF4U00200CZ,0BDDF5F00100F7,0WGUF3V00100CX,0DQAF5H032053Y,,Android, 4.2.16,,,,,,
46,6/19/2018,0:57:25,0m 5.2s,5.2,39.96119876,-106.2164472,4.6,4.6,4.6,8133,0,1.5,0.2,0.5,0.2,0.7,-0.9,0,-6.1,-2.9,-111.2,248.8,Auto Takeoff,Other (34),Takeoff (App Auto),15,5,TRUE,,Phantom 4 Pro V2,TRUE,FALSE,,Smart,RC,FALSE,TRUE,FALSE,,,TRUE,,FALSE,FALSE,FALSE,FALSE,FALSE,FALSE,FALSE,FALSE,FALSE,FALSE,0,Follow Yaw,0,0,-111.5,248.5,FALSE,FALSE,FALSE,FALSE,FALSE,FALSE,,TRUE,Normal,,,1024,1024,1024,1024,0,FALSE,FALSE,FALSE,FALSE,FALSE,0,FALSE,FALSE,FALSE,FALSE,37,14.924,2243,6064,14.925,FALSE,3.742,3.753,3.754,3.742,0.015,FALSE,FALSE,52.24,107.5,107.5,107.5,0,1,0,15,10,12872.5,3300.65,,Idle,0,30,FALSE,10,TRUE,0,Go Home,39.96119672,-106.216454,2.1,7854.1,1312.3,TRUE,1,1,FALSE,FALSE,FALSE,FALSE,0,FALSE,FALSE,FALSE,Course Lock,98.4,,9.8,Calm,5,Android, 4.2.16,DF062 - Phantom4Pro V2,11VKF4U00200CZ,0BDDF5F00100F7,0WGUF3V00100CX,0DQAF5H032053Y,366.9,8704.1,164.4,30.5,11.9,0,0,DF062 - Phantom4Pro V2,11VKF4U00200CZ,0BDDF5F00100F7,0WGUF3V00100CX,0DQAF5H032053Y,,Android, 4.2.16,,,,,,
47,6/19/2018,0:57:26,0m 5.3s,5.3,39.96119883,-106.216447,4.9,4.9,4.9,8133,0,1.5,0,0.5,0,0.7,-0.9,0,-6.6,-1.8,-111.1,248.9,Auto Takeoff,Other (34),Takeoff (App Auto),15,5,TRUE,,Phantom 4 Pro V2,TRUE,FALSE,,Smart,RC,FALSE,TRUE,FALSE,,,TRUE,,FALSE,FALSE,FALSE,FALSE,FALSE,FALSE,FALSE,FALSE,FALSE,FALSE,0,Follow Yaw,0,0,-111.5,248.5,FALSE,FALSE,FALSE,FALSE,FALSE,FALSE,,TRUE,Normal,,,1024,1024,1024,1024,0,FALSE,FALSE,FALSE,FALSE,FALSE,0,FALSE,FALSE,FALSE,FALSE,37,14.924,2243,6064,14.925,FALSE,3.742,3.753,3.754,3.742,0.015,FALSE,FALSE,52.24,107.5,107.5,107.5,0,1,0,15,10,12872.5,3300.65,,Idle,0,30,FALSE,10,TRUE,0,Go Home,39.96119672,-106.216454,2.1,7854.1,1312.3,TRUE,1,1,FALSE,FALSE,FALSE,FALSE,0,FALSE,FALSE,FALSE,Course Lock,98.4,,9.8,Calm,5,Android, 4.2.16,DF062 - Phantom4Pro V2,11VKF4U00200CZ,0BDDF5F00100F7,0WGUF3V00100CX,0DQAF5H032053Y,366.9,8704.1,164.4,30.5,11.9,0,0,DF062 - Phantom4Pro V2,11VKF4U00200CZ,0BDDF5F00100F7,0WGUF3V00100CX,0DQAF5H032053Y,,Android, 4.2.16,,,,,,
48,6/19/2018,0:57:26,0m 5.4s,5.4,39.9611989,-106.2164469,4.9,4.9,4.9,8133,0,1.5,0,0.5,0,0.7,-0.9,0,-6.5,-1.5,-111.2,248.8,Auto Takeoff,Other (34),Takeoff (App Auto),15,5,TRUE,,Phantom 4 Pro V2,TRUE,FALSE,,Smart,RC,FALSE,TRUE,FALSE,,,TRUE,,FALSE,FALSE,FALSE,FALSE,FALSE,FALSE,FALSE,FALSE,FALSE,FALSE,0,Follow Yaw,0,0,-111.5,248.5,FALSE,FALSE,FALSE,FALSE,FALSE,FALSE,,TRUE,Normal,,,1024,1024,1024,1024,0,FALSE,FALSE,FALSE,FALSE,FALSE,0,FALSE,FALSE,FALSE,FALSE,37,14.924,2243,6064,14.925,FALSE,3.742,3.753,3.754,3.742,0.015,FALSE,FALSE,52.24,107.5,107.5,107.5,0,1,0,15,10,12872.5,3300.65,,Idle,0,30,FALSE,10,TRUE,0,Go Home,39.96119672,-106.216454,2.2,7854.1,1312.3,TRUE,1,1,FALSE,FALSE,FALSE,FALSE,0,FALSE,FALSE,FALSE,Course Lock,98.4,,9.8,Calm,5,Android, 4.2.16,DF062 - Phantom4Pro V2,11VKF4U00200CZ,0BDDF5F00100F7,0WGUF3V00100CX,0DQAF5H032053Y,366.9,8704.1,164.4,30.5,11.9,0,0,DF062 - Phantom4Pro V2,11VKF4U00200CZ,0BDDF5F00100F7,0WGUF3V00100CX,0DQAF5H032053Y,,Android, 4.2.16,,,,,,
49,6/19/2018,0:57:26,0m 5.5s,5.5,39.96119901,-106.2164468,4.9,4.9,4.9,8133,0,1.5,0,0.5,0,0.7,-0.9,0,-6.1,-3.7,-111.2,248.8,Auto Takeoff,Other (34),Takeoff (App Auto),15,5,TRUE,,Phantom 4 Pro V2,TRUE,FALSE,,Smart,RC,FALSE,TRUE,FALSE,,,TRUE,,FALSE,FALSE,FALSE,FALSE,FALSE,FALSE,FALSE,FALSE,FALSE,FALSE,0,Follow Yaw,0,0,-111.5,248.5,FALSE,FALSE,FALSE,FALSE,FALSE,FALSE,,TRUE,Normal,,,1024,1024,1024,1024,0,FALSE,FALSE,FALSE,FALSE,FALSE,0,FALSE,FALSE,FALSE,FALSE,37,14.924,2243,6064,14.925,FALSE,3.742,3.753,3.754,3.742,0.015,FALSE,FALSE,52.24,107.5,107.5,107.5,0,1,0,15,10,12872.5,3300.65,,Idle,0,30,FALSE,10,TRUE,0,Go Home,39.96119672,-106.216454,2.2,7854.1,1312.3,TRUE,1,1,FALSE,FALSE,FALSE,FALSE,0,FALSE,FALSE,FALSE,Course Lock,98.4,,9.8,Calm,5,Android, 4.2.16,DF062 - Phantom4Pro V2,11VKF4U00200CZ,0BDDF5F00100F7,0WGUF3V00100CX,0DQAF5H032053Y,366.9,8704.1,164.4,30.5,11.9,0,0,DF062 - Phantom4Pro V2,11VKF4U00200CZ,0BDDF5F00100F7,0WGUF3V00100CX,0DQAF5H032053Y,,Android, 4.2.16,,,,,,
50,6/19/2018,0:57:26,0m 5.6s,5.6,39.96119923,-106.2164466,4.9,4.9,5.2,8133,0,1.5,0,0.5,0,0.7,-0.9,0,-6,-2.4,-110.8,249.2,Auto Takeoff,Other (34),Takeoff (App Auto),15,5,TRUE,,Phantom 4 Pro V2,TRUE,FALSE,,Smart,RC,FALSE,TRUE,FALSE,,,TRUE,,FALSE,FALSE,FALSE,FALSE,FALSE,FALSE,FALSE,FALSE,FALSE,FALSE,0,Follow Yaw,0,0,-111.5,248.5,FALSE,FALSE,FALSE,FALSE,FALSE,FALSE,,TRUE,Normal,,,1024,1024,1024,1024,0,FALSE,FALSE,FALSE,FALSE,FALSE,0,FALSE,FALSE,FALSE,FALSE,37,14.924,2243,6064,14.925,FALSE,3.742,3.753,3.754,3.742,0.015,FALSE,FALSE,52.24,107.5,107.5,107.5,0,1,0,15,10,12872.5,3300.65,,Idle,0,30,FALSE,10,TRUE,0,Go Home,39.96119672,-106.216454,2.3,7854.1,1312.3,TRUE,1,1,FALSE,FALSE,FALSE,FALSE,0,FALSE,FALSE,FALSE,Course Lock,98.4,,9.8,Calm,5,Android, 4.2.16,DF062 - Phantom4Pro V2,11VKF4U00200CZ,0BDDF5F00100F7,0WGUF3V00100CX,0DQAF5H032053Y,366.9,8704.1,164.4,30.5,11.9,0,0,DF062 - Phantom4Pro V2,11VKF4U00200CZ,0BDDF5F00100F7,0WGUF3V00100CX,0DQAF5H032053Y,,Android, 4.2.16,,,,,,
51,6/19/2018,0:57:26,0m 5.7s,5.7,39.9611992,-106.2164465,5.2,5.2,5.2,8133,1.1,1.5,0,0.5,0,0.7,-0.9,0,-5.1,0.2,-110.8,249.2,Auto Takeoff,Other (34),Takeoff (App Auto),15,5,TRUE,,Phantom 4 Pro V2,TRUE,FALSE,,Smart,RC,FALSE,TRUE,FALSE,,,TRUE,,FALSE,FALSE,FALSE,FALSE,FALSE,FALSE,FALSE,FALSE,FALSE,FALSE,0,Follow Yaw,0,0,-111.5,248.5,FALSE,FALSE,FALSE,FALSE,FALSE,FALSE,,TRUE,Normal,,,1024,1024,1024,1024,0,FALSE,FALSE,FALSE,FALSE,FALSE,0,FALSE,FALSE,FALSE,FALSE,37,14.939,2243,6064,14.937,FALSE,3.742,3.753,3.754,3.742,0.015,FALSE,FALSE,52.29,107.5,107.5,107.5,0,1,0,15,10,18141.4,4651.64,,Idle,0,30,FALSE,10,TRUE,0,Go Home,39.96119672,-106.216454,2.3,7854.1,1312.3,TRUE,1,1,FALSE,FALSE,FALSE,FALSE,0,FALSE,FALSE,FALSE,Course Lock,98.4,,9.8,Calm,5,Android, 4.2.16,DF062 - Phantom4Pro V2,11VKF4U00200CZ,0BDDF5F00100F7,0WGUF3V00100CX,0DQAF5H032053Y,366.9,8704.1,164.4,30.5,11.9,0,0,DF062 - Phantom4Pro V2,11VKF4U00200CZ,0BDDF5F00100F7,0WGUF3V00100CX,0DQAF5H032053Y,,Android, 4.2.16,,,,,,
52,6/19/2018,0:57:26,0m 5.8s,5.8,39.96119917,-106.2164464,5.2,5.2,5.6,8133,0,1.5,0,0.5,0,0.7,-0.9,0,-5.5,-1.3,-111,249,Auto Takeoff,Other (34),Takeoff (App Auto),15,5,TRUE,,Phantom 4 Pro V2,TRUE,FALSE,,Smart,RC,FALSE,TRUE,FALSE,,,TRUE,,FALSE,FALSE,FALSE,FALSE,FALSE,FALSE,FALSE,FALSE,FALSE,FALSE,0,Follow Yaw,0,0,-111.5,248.5,FALSE,FALSE,FALSE,FALSE,FALSE,FALSE,,TRUE,Normal,,,1024,1024,1024,1024,0,FALSE,FALSE,FALSE,FALSE,FALSE,0,FALSE,FALSE,FALSE,FALSE,37,14.939,2243,6064,14.937,FALSE,3.742,3.753,3.754,3.742,0.015,FALSE,FALSE,52.29,107.5,107.5,107.5,0,1,0,15,10,18141.4,4651.64,,Idle,0,30,FALSE,10,TRUE,0,Go Home,39.96119672,-106.216454,2.3,7854.1,1312.3,TRUE,1,1,FALSE,FALSE,FALSE,FALSE,0,FALSE,FALSE,FALSE,Course Lock,98.4,,9.8,Calm,5,Android, 4.2.16,DF062 - Phantom4Pro V2,11VKF4U00200CZ,0BDDF5F00100F7,0WGUF3V00100CX,0DQAF5H032053Y,366.9,8704.1,164.4,30.5,11.9,0,0,DF062 - Phantom4Pro V2,11VKF4U00200CZ,0BDDF5F00100F7,0WGUF3V00100CX,0DQAF5H032053Y,,Android, 4.2.16,,,,,,
53,6/19/2018,0:57:26,0m 5.9s,5.9,39.96119908,-106.2164463,5.6,5.6,5.6,8134,0,1.5,0,0.5,0,0.7,-0.9,0,-5.9,-0.9,-110.9,249.1,Auto Takeoff,Other (34),Takeoff (App Auto),15,5,TRUE,,Phantom 4 Pro V2,TRUE,FALSE,,Smart,RC,FALSE,TRUE,FALSE,,,TRUE,,FALSE,FALSE,FALSE,FALSE,FALSE,FALSE,FALSE,FALSE,FALSE,FALSE,0,Follow Yaw,0,0,-111.5,248.5,FALSE,FALSE,FALSE,FALSE,FALSE,FALSE,,TRUE,Normal,,,1024,1024,1024,1024,0,FALSE,FALSE,FALSE,FALSE,FALSE,0,FALSE,FALSE,FALSE,FALSE,37,14.939,2243,6064,14.937,FALSE,3.742,3.753,3.754,3.742,0.015,FALSE,FALSE,52.29,107.5,107.5,107.5,0,1,0,15,10,18141.4,4651.64,,Idle,0,30,FALSE,10,TRUE,0,Go Home,39.96119672,-106.216454,2.3,7854.1,1312.3,TRUE,1,1,FALSE,FALSE,FALSE,FALSE,0,FALSE,FALSE,FALSE,Course Lock,98.4,,9.8,Calm,5,Android, 4.2.16,DF062 - Phantom4Pro V2,11VKF4U00200CZ,0BDDF5F00100F7,0WGUF3V00100CX,0DQAF5H032053Y,366.9,8704.1,164.4,30.5,11.9,0,0,DF062 - Phantom4Pro V2,11VKF4U00200CZ,0BDDF5F00100F7,0WGUF3V00100CX,0DQAF5H032053Y,,Android, 4.2.16,,,,,,
54,6/19/2018,0:57:26,0m 6.0s,6,39.96119894,-106.2164463,5.6,5.6,5.9,8134,0,1.5,0,0.5,0,0.7,-0.9,0,-5.9,1.4,-110.9,249.1,Auto Takeoff,Other (34),Takeoff (App Auto),15,5,TRUE,,Phantom 4 Pro V2,TRUE,FALSE,,Smart,RC,FALSE,TRUE,FALSE,,,TRUE,,FALSE,FALSE,FALSE,FALSE,FALSE,FALSE,FALSE,FALSE,FALSE,FALSE,0,Follow Yaw,0,0,-111.5,248.5,FALSE,FALSE,FALSE,FALSE,FALSE,FALSE,,TRUE,Normal,,,1024,1024,1024,1024,0,FALSE,FALSE,FALSE,FALSE,FALSE,0,FALSE,FALSE,FALSE,FALSE,37,14.939,2243,6064,14.937,FALSE,3.742,3.753,3.754,3.742,0.015,FALSE,FALSE,52.29,107.5,107.5,107.5,0,1,0,15,10,18141.4,4651.64,,Idle,0,30,FALSE,10,TRUE,0,Go Home,39.96119672,-106.216454,2.3,7854.1,1312.3,TRUE,1,1,FALSE,FALSE,FALSE,FALSE,0,FALSE,FALSE,FALSE,Course Lock,98.4,,9.8,Calm,5,Android, 4.2.16,DF062 - Phantom4Pro V2,11VKF4U00200CZ,0BDDF5F00100F7,0WGUF3V00100CX,0DQAF5H032053Y,366.9,8704.1,164.4,30.5,11.9,0,0,DF062 - Phantom4Pro V2,11VKF4U00200CZ,0BDDF5F00100F7,0WGUF3V00100CX,0DQAF5H032053Y,,Android, 4.2.16,,,,,,
55,6/19/2018,0:57:26,0m 6.1s,6.1,39.96119879,-106.2164462,5.9,5.9,5.9,8134,0,1.5,0,0.5,0,0.7,-1.1,0,-5.8,1.1,-111.1,248.9,Auto Takeoff,Other (34),Takeoff (App Auto),15,5,TRUE,,Phantom 4 Pro V2,TRUE,FALSE,,Smart,RC,FALSE,TRUE,FALSE,,,TRUE,,FALSE,FALSE,FALSE,FALSE,FALSE,FALSE,FALSE,FALSE,FALSE,FALSE,0,Follow Yaw,0,0,-111.5,248.5,FALSE,FALSE,FALSE,FALSE,FALSE,FALSE,,TRUE,Normal,,,1024,1024,1024,1024,0,FALSE,FALSE,FALSE,FALSE,FALSE,0,FALSE,FALSE,FALSE,FALSE,37,14.939,2243,6064,14.937,FALSE,3.742,3.753,3.754,3.742,0.015,FALSE,FALSE,52.29,107.5,107.5,107.5,0,1,0,15,10,18141.4,4651.64,,Idle,0,30,FALSE,10,TRUE,0,Go Home,39.96119672,-106.216454,2.3,7854.1,1312.3,TRUE,1,1,FALSE,FALSE,FALSE,FALSE,0,FALSE,FALSE,FALSE,Course Lock,98.4,,9.8,Calm,5,Android, 4.2.16,DF062 - Phantom4Pro V2,11VKF4U00200CZ,0BDDF5F00100F7,0WGUF3V00100CX,0DQAF5H032053Y,366.9,8704.1,164.4,30.5,11.9,0,0,DF062 - Phantom4Pro V2,11VKF4U00200CZ,0BDDF5F00100F7,0WGUF3V00100CX,0DQAF5H032053Y,,Android, 4.2.16,,,,,,
56,6/19/2018,0:57:27,0m 6.2s,6.2,39.96119869,-106.2164462,5.9,5.9,6.2,8134,0,1.5,0,0.5,0,0.7,-1.1,0,-6.1,0.9,-111.3,248.7,Auto Takeoff,Other (34),Takeoff (App Auto),15,5,TRUE,,Phantom 4 Pro V2,TRUE,FALSE,,Smart,RC,FALSE,TRUE,FALSE,,,TRUE,,FALSE,FALSE,FALSE,FALSE,FALSE,FALSE,FALSE,FALSE,FALSE,FALSE,0,Follow Yaw,0,0,-111.5,248.5,FALSE,FALSE,FALSE,FALSE,FALSE,FALSE,,TRUE,Normal,,,1024,1024,1024,1024,0,FALSE,FALSE,FALSE,FALSE,FALSE,0,FALSE,FALSE,FALSE,FALSE,37,14.939,2243,6064,14.937,FALSE,3.742,3.753,3.754,3.742,0.015,FALSE,FALSE,52.29,107.5,107.5,107.5,0,1,0,15,10,18141.4,4651.64,,Idle,0,30,FALSE,10,TRUE,0,Go Home,39.96119672,-106.216454,2.3,7854.1,1312.3,TRUE,1,1,FALSE,FALSE,FALSE,FALSE,0,FALSE,FALSE,FALSE,Course Lock,98.4,,9.8,Calm,5,Android, 4.2.16,DF062 - Phantom4Pro V2,11VKF4U00200CZ,0BDDF5F00100F7,0WGUF3V00100CX,0DQAF5H032053Y,366.9,8704.1,164.4,30.5,11.9,0,0,DF062 - Phantom4Pro V2,11VKF4U00200CZ,0BDDF5F00100F7,0WGUF3V00100CX,0DQAF5H032053Y,,Android, 4.2.16,,,,,,
57,6/19/2018,0:57:27,0m 6.3s,6.3,39.9611987,-106.2164463,6.2,6.2,6.2,8134,0,1.5,0.2,0.5,0,0.7,-1.1,0,-6.2,-0.5,-111.3,248.7,Auto Takeoff,Other (34),Takeoff (App Auto),15,5,TRUE,,Phantom 4 Pro V2,TRUE,FALSE,,Smart,RC,FALSE,TRUE,FALSE,,,TRUE,,FALSE,FALSE,FALSE,FALSE,FALSE,FALSE,FALSE,FALSE,FALSE,FALSE,0,Follow Yaw,0,0,-111.5,248.5,FALSE,FALSE,FALSE,FALSE,FALSE,FALSE,,TRUE,Normal,,,1024,1024,1024,1024,0,FALSE,FALSE,FALSE,FALSE,FALSE,0,FALSE,FALSE,FALSE,FALSE,37,14.939,2243,6064,14.937,FALSE,3.742,3.753,3.754,3.742,0.015,FALSE,FALSE,52.29,107.5,107.5,107.5,0,1,0,15,10,18141.4,4651.64,,Idle,0,30,FALSE,10,TRUE,0,Go Home,39.96119672,-106.216454,2.3,7854.1,1312.3,TRUE,1,1,FALSE,FALSE,FALSE,FALSE,0,FALSE,FALSE,FALSE,Course Lock,98.4,,9.8,Calm,5,Android, 4.2.16,DF062 - Phantom4Pro V2,11VKF4U00200CZ,0BDDF5F00100F7,0WGUF3V00100CX,0DQAF5H032053Y,366.9,8704.1,164.4,30.5,11.9,0,0,DF062 - Phantom4Pro V2,11VKF4U00200CZ,0BDDF5F00100F7,0WGUF3V00100CX,0DQAF5H032053Y,,Android, 4.2.16,,,,,,
