#,CUSTOM.date [local], CUSTOM.updateTime [local], OSD.flyTime, OSD.flyTime [s], OSD.latitude, OSD.longitude, OSD.height [ft], OSD.heightMax [ft], OSD.vpsHeight [ft], OSD.altitude [ft], OSD.hSpeed [MPH], OSD.hSpeedMax [MPH], OSD.xSpeed [MPH], OSD.xSpeedMax [MPH], OSD.ySpeed [MPH], OSD.ySpeedMax [MPH], OSD.zSpeed [MPH], OSD.zSpeedMax [MPH], OSD.pitch, OSD.roll, OSD.yaw, OSD.yaw [360], OSD.flycState, OSD.flycCommand, OSD.flightAction, OSD.gpsNum, OSD.gpsLevel, OSD.isGPSUsed, OSD.nonGPSCause, OSD.droneType, OSD.isSwaveWork, OSD.waveError, OSD.goHomeStatus, OSD.batteryType, OSD.ctrlDevice, OSD.isOnGround, OSD.isMotorOn, OSD.isMotorBlocked, OSD.motorStartFailedCause, OSD.motorFailReason, OSD.isImuPreheated, OSD.imuInitFailReason, OSD.isAcceletorOverRange, OSD.isBarometerDeadInAir, OSD.isCompassError, OSD.isGoHomeHeightModified, OSD.canIOCWork, OSD.isNotEnoughForce, OSD.isOutOfLimit, OSD.isPropellerCatapult, OSD.isVibrating, OSD.isVisionUsed, OSD.voltageWarning, GIMBAL.mode, GIMBAL.pitch, GIMBAL.roll, GIMBAL.yaw, GIMBAL.yaw [360], GIMBAL.isPitchAtLimit, GIMBAL.isRollAtLimit, GIMBAL.isYawAtLimit, GIMBAL.isStuck, CAMERA.isPhoto, CAMERA.isVideo, CAMERA.filename, CAMERA.sdCardIsInserted, CAMERA.sdCardState, RC.downlinkSignal, RC.uplinkSignal, RC.aileron, RC.elevator, RC.throttle, RC.rudder, RC.mode, RC.goHomeDepressed, RC.recordDepressed, RC.shutterDepressed, RC.playbackDepressed, RC.wheelDepressed, RC.wheelOffset, RC.custom1Depressed, RC.custom2Depressed, RC.custom3Depressed, RC.custom4Depressed, BATTERY.chargeLevel, BATTERY.currentPV [V], BATTERY.currentCapacity [mAh], BATTERY.fullCapacity [mAh], BATTERY.voltage [V], BATTERY.isCellVoltageEstimated, BATTERY.cellVoltage1 [V], BATTERY.cellVoltage2 [V], BATTERY.cellVoltage3 [V], BATTERY.cellVoltage4 [V], BATTERY.maxCellVoltageDeviation, BATTERY.isCellVoltageDeviationHigh, BATTERY.isVoltageLow, BATTERY.current [A], BATTERY.temperature [F], BATTERY.minTemperature [F], BATTERY.maxTemperature [F], BATTERY.usefulTime [s], BATTERY.goHomeTime [s], BATTERY.landTime [s], BATTERY.goHomeBattery, BATTERY.landBattery, BATTERY.safeFlyRadius, BATTERY.volumeConsume, BATTERY.status, BATTERY.goHomeStatus, BATTERY.goHomeCountdown, BATTERY.lowWarning, BATTERY.lowWarningGoHome, BATTERY.seriousLowWarning, BATTERY.seriousLowWarningLanding, BATTERY.timesCharged, MC.failSafeAction, HOME.latitude, HOME.longitude, HOME.distance [ft], HOME.height [ft], HOME.heightLimit [ft], HOME.isHomeRecord, HOME.goHomeMode, HOME.aircraftHeadDirection, HOME.isDynamicHomePointEnabled, HOME.isReachedLimitDistance, HOME.isReachedLimitHeight, HOME.isCompassCeleing, HOME.compassCeleStatus, HOME.isMultipleFlightModeEnabled, HOME.isBeginnerMode, HOME.isIOCEnabled, HOME.iocMode, HOME.goHomeHeight [ft], HOME.courseLockAngle, HOME.forceLandingHeight [ft], HOME.wind, HOME.dataRecorderFileIndex, RECOVER.appType, RECOVER.appVersion, RECOVER.aircraftName, RECOVER.aircraftSerial, RECOVER.cameraSerial, RECOVER.rcSerial, RECOVER.batterySerial, DETAILS.totalTime [s], DETAILS.totalDistance [ft], DETAILS.maxHeight [ft], DETAILS.maxHorizontalSpeed [MPH], DETAILS.maxVerticalSpeed [MPH], DETAILS.photoNum, DETAILS.videoTime [s], DETAILS.aircraftName, DETAILS.aircraftSerial, DETAILS.cameraSerial, DETAILS.rcSerial, DETAILS.batterySerial, DETAILS.appName, DETAILS.appType, DETAILS.appVersion, APPGPS.latitude, APPGPS.longitude, APPGPS.accuracy, APP.message, APP.tip, APP.warning
1,6/29/2017,15:21.1,0m 10.6s,10.6,39.96117469,-106.2164969,0,0,0.3,8128,0,0,0,0,0,0,0,0,7,2.4,-100.2,259.8,Manual Takeoff,Other,Takeoff (RC Assisted),15,5,TRUE,,Phantom 4 Pro,TRUE,FALSE,,Smart,RC,TRUE,TRUE,FALSE,,,TRUE,,FALSE,FALSE,FALSE,FALSE,FALSE,FALSE,FALSE,FALSE,FALSE,FALSE,0,FPV,53.3,-22.6,15.9,15.9,FALSE,FALSE,TRUE,FALSE,FALSE,FALSE,,FALSE,Normal,,,1024,1024,1024,1024,1,FALSE,FALSE,FALSE,FALSE,FALSE,0,FALSE,FALSE,FALSE,FALSE,97,17.098,5854,6036,17.099,FALSE,4.264,4.264,4.258,4.256,0.008,FALSE,FALSE,62.048,102.1,102.1,102.1,0,0,0,0,0,0,1613.52,,Idle,0,30,FALSE,10,TRUE,0,Go Home,39.96117754,-106.2165129,4.6,8339.7,,TRUE,1,1,FALSE,FALSE,FALSE,FALSE,0,TRUE,FALSE,FALSE,Course Lock,98.4,,9.8,Calm,4,Android, 4.1.2,df005,07JDE5300200GN,,0CKJ2026ZD,0,76.335,12.3,9.5,0.9,1.1,0,0,df005,07JDE5300200GN,,0CKJ2026ZD,0,,Android, 4.1.2,,,,Data Recorder File Index is 4.,Motors Started.,
2,6/29/2017,15:21.3,0m 10.7s,10.7,39.9611747,-106.2164969,0,0,0.3,8128,0,0,0,0,0,0,0,0,7,2.4,-100.2,259.8,Manual Takeoff,Other,Takeoff (RC Assisted),15,5,TRUE,,Phantom 4 Pro,TRUE,FALSE,,Smart,RC,TRUE,TRUE,FALSE,,,TRUE,,FALSE,FALSE,FALSE,FALSE,FALSE,FALSE,FALSE,FALSE,FALSE,FALSE,0,FPV,53,-22.5,15.8,15.8,FALSE,FALSE,TRUE,FALSE,FALSE,FALSE,,FALSE,Normal,,,1024,1024,1024,1024,1,FALSE,FALSE,FALSE,FALSE,FALSE,0,FALSE,FALSE,FALSE,FALSE,97,17.098,5854,6036,17.099,FALSE,4.264,4.264,4.258,4.256,0.008,FALSE,FALSE,62.048,102.1,102.1,102.1,0,0,0,0,0,0,1613.52,,Idle,0,30,FALSE,10,TRUE,0,Go Home,39.96117754,-106.2165129,4.6,8339.7,,TRUE,1,1,FALSE,FALSE,FALSE,FALSE,0,TRUE,FALSE,FALSE,Course Lock,98.4,,9.8,Calm,4,Android, 4.1.2,df005,07JDE5300200GN,,0CKJ2026ZD,0,76.335,12.3,9.5,0.9,1.1,0,0,df005,07JDE5300200GN,,0CKJ2026ZD,0,,Android, 4.1.2,,,,,,
3,6/29/2017,15:21.9,0m 11.4s,11.4,39.96117458,-106.2164968,0,0,0.3,8128,0,0,0,0,0,0,0,0,6.9,2.4,-100.2,259.8,Manual Takeoff,Other,Takeoff (RC Assisted),15,5,TRUE,,Phantom 4 Pro,TRUE,FALSE,,Smart,RC,TRUE,TRUE,FALSE,,,TRUE,,FALSE,FALSE,FALSE,FALSE,FALSE,FALSE,FALSE,FALSE,FALSE,FALSE,0,FPV,52.4,-22.4,15.6,15.6,FALSE,FALSE,TRUE,FALSE,FALSE,FALSE,,FALSE,Normal,,,1024,1024,1024,1024,1,FALSE,FALSE,FALSE,FALSE,FALSE,0,FALSE,FALSE,FALSE,FALSE,97,17.098,5854,6036,17.099,FALSE,4.264,4.264,4.258,4.256,0.008,FALSE,FALSE,62.048,102.1,102.1,102.1,0,0,0,0,0,0,1613.52,,Idle,0,30,FALSE,10,TRUE,0,Go Home,39.96117754,-106.2165129,4.6,8339.7,,TRUE,1,1,FALSE,FALSE,FALSE,FALSE,0,TRUE,FALSE,FALSE,Course Lock,98.4,,9.8,Calm,4,Android, 4.1.2,df005,07JDE5300200GN,,0CKJ2026ZD,0,76.335,12.3,9.5,0.9,1.1,0,0,df005,07JDE5300200GN,,0CKJ2026ZD,0,,Android, 4.1.2,,,,,,
4,6/29/2017,15:22.3,0m 11.8s,11.8,39.96117456,-106.2164967,0,0,0.3,8128,0,0,0,0,0,0,0,0,7,2.4,-100.2,259.8,Manual Takeoff,Other,Takeoff (RC Assisted),15,5,TRUE,,Phantom 4 Pro,TRUE,FALSE,,Smart,RC,TRUE,TRUE,FALSE,,,TRUE,,FALSE,FALSE,FALSE,FALSE,FALSE,FALSE,FALSE,FALSE,FALSE,FALSE,0,FPV,51.1,-22,15,15,FALSE,FALSE,TRUE,FALSE,FALSE,FALSE,,FALSE,Normal,,,1024,1024,1024,1024,1,FALSE,FALSE,FALSE,FALSE,FALSE,0,FALSE,FALSE,FALSE,FALSE,97,17.098,5854,6036,17.099,FALSE,4.264,4.264,4.258,4.256,0.008,FALSE,FALSE,62.048,102.1,102.1,102.1,0,0,0,0,0,0,1613.52,,Idle,0,30,FALSE,10,TRUE,0,Go Home,39.96117754,-106.2165129,4.7,8339.7,,TRUE,1,1,FALSE,FALSE,FALSE,FALSE,0,TRUE,FALSE,FALSE,Course Lock,98.4,,9.8,Calm,4,Android, 4.1.2,df005,07JDE5300200GN,,0CKJ2026ZD,0,76.335,12.3,9.5,0.9,1.1,0,0,df005,07JDE5300200GN,,0CKJ2026ZD,0,,Android, 4.1.2,,,,,,Downlink Lost.
5,6/29/2017,15:23.7,0m 13.2s,13.2,39.96117441,-106.2164965,0,0,0.3,8128,0,0,0,0,0,0,0,0,7,2.4,-100.2,259.8,Manual Takeoff,Other,Takeoff (RC Assisted),14,5,TRUE,,Phantom 4 Pro,TRUE,FALSE,,Smart,RC,TRUE,TRUE,FALSE,,,TRUE,,FALSE,FALSE,FALSE,FALSE,FALSE,FALSE,FALSE,FALSE,FALSE,FALSE,0,FPV,50.8,-21.9,14.9,14.9,FALSE,FALSE,TRUE,FALSE,FALSE,FALSE,,FALSE,Normal,,,1024,1024,1024,1024,1,FALSE,FALSE,FALSE,FALSE,FALSE,0,FALSE,FALSE,FALSE,FALSE,97,17.098,5854,6036,17.099,FALSE,4.264,4.264,4.258,4.256,0.008,FALSE,FALSE,62.048,102.1,102.1,102.1,0,0,0,0,0,0,1613.52,,Idle,0,30,FALSE,10,TRUE,0,Go Home,39.96117754,-106.2165129,4.7,8339.7,,TRUE,1,1,FALSE,FALSE,FALSE,FALSE,0,TRUE,FALSE,FALSE,Course Lock,98.4,,9.8,Calm,4,Android, 4.1.2,df005,07JDE5300200GN,,0CKJ2026ZD,0,76.335,12.3,9.5,0.9,1.1,0,0,df005,07JDE5300200GN,,0CKJ2026ZD,0,,Android, 4.1.2,,,,Downlink Restored (after 0m 1.4s).,,
6,6/29/2017,15:24.2,0m 13.7s,13.7,39.96117437,-106.2164965,0,0,0.3,8128,0,0,0,0,0,0,0,0,7,2.4,-100.2,259.8,Manual Takeoff,Other,Takeoff (RC Assisted),14,5,TRUE,,Phantom 4 Pro,TRUE,FALSE,,Smart,RC,TRUE,TRUE,FALSE,,,TRUE,,FALSE,FALSE,FALSE,FALSE,FALSE,FALSE,FALSE,FALSE,FALSE,FALSE,0,FPV,50.3,-21.8,14.7,14.7,FALSE,FALSE,TRUE,FALSE,FALSE,FALSE,,FALSE,Normal,,,1024,1024,1024,1024,1,FALSE,FALSE,FALSE,FALSE,FALSE,0,FALSE,FALSE,FALSE,FALSE,97,17.098,5854,6036,17.099,FALSE,4.264,4.264,4.258,4.256,0.008,FALSE,FALSE,62.048,102.1,102.1,102.1,0,0,0,0,0,0,1613.52,,Idle,0,30,FALSE,10,TRUE,0,Go Home,39.96117754,-106.2165129,4.7,8339.7,,TRUE,1,1,FALSE,FALSE,FALSE,FALSE,0,TRUE,FALSE,FALSE,Course Lock,98.4,,9.8,Calm,4,Android, 4.1.2,df005,07JDE5300200GN,,0CKJ2026ZD,0,76.335,12.3,9.5,0.9,1.1,0,0,df005,07JDE5300200GN,,0CKJ2026ZD,0,,Android, 4.1.2,,,,,,Downlink Lost.
7,6/29/2017,15:25.1,0m 14.6s,14.6,39.96117439,-106.2164964,0,0,0.3,8128,0,0,0,0,0,0,0,0,7,2.4,-100.3,259.7,Manual Takeoff,Other,Takeoff (RC Assisted),14,5,TRUE,,Phantom 4 Pro,TRUE,FALSE,,Smart,RC,TRUE,TRUE,FALSE,,,TRUE,,FALSE,FALSE,FALSE,FALSE,FALSE,FALSE,FALSE,FALSE,FALSE,FALSE,0,FPV,50.3,-21.8,14.7,14.7,FALSE,FALSE,TRUE,FALSE,FALSE,FALSE,,FALSE,Normal,,,1024,1024,1024,1024,1,FALSE,FALSE,FALSE,FALSE,FALSE,0,FALSE,FALSE,FALSE,FALSE,97,17.098,5854,6036,17.099,FALSE,4.264,4.264,4.258,4.256,0.008,FALSE,FALSE,62.048,102.1,102.1,102.1,0,0,0,0,0,0,1613.52,,Idle,0,30,FALSE,10,TRUE,0,Go Home,39.96117754,-106.2165129,4.8,8339.7,,TRUE,1,1,FALSE,FALSE,FALSE,FALSE,0,TRUE,FALSE,FALSE,Course Lock,98.4,,9.8,Calm,4,Android, 4.1.2,df005,07JDE5300200GN,,0CKJ2026ZD,0,76.335,12.3,9.5,0.9,1.1,0,0,df005,07JDE5300200GN,,0CKJ2026ZD,0,,Android, 4.1.2,,,,Downlink Restored (after 0m 0.9s).,,
8,6/29/2017,15:25.3,0m 14.8s,14.8,39.9611744,-106.2164963,0,0,0.3,8128,0,0,0,0,0,0,0,0,7,2.4,-100.3,259.7,Manual Takeoff,Other,Takeoff (RC Assisted),14,5,TRUE,,Phantom 4 Pro,TRUE,FALSE,,Smart,RC,TRUE,TRUE,FALSE,,,TRUE,,FALSE,FALSE,FALSE,FALSE,FALSE,FALSE,FALSE,FALSE,FALSE,FALSE,0,FPV,50.3,-21.8,14.7,14.7,FALSE,FALSE,TRUE,FALSE,FALSE,FALSE,,FALSE,Normal,,,1024,1024,1024,1024,1,FALSE,FALSE,FALSE,FALSE,FALSE,0,FALSE,FALSE,FALSE,FALSE,97,17.098,5854,6036,17.099,FALSE,4.264,4.264,4.258,4.256,0.008,FALSE,FALSE,62.048,102.1,102.1,102.1,0,0,0,0,0,0,1613.52,,Idle,0,30,FALSE,10,TRUE,0,Go Home,39.96117754,-106.2165129,4.8,8339.7,,TRUE,1,1,FALSE,FALSE,FALSE,FALSE,0,TRUE,FALSE,FALSE,Course Lock,98.4,,9.8,Calm,4,Android, 4.1.2,df005,07JDE5300200GN,,0CKJ2026ZD,0,76.335,12.3,9.5,0.9,1.1,0,0,df005,07JDE5300200GN,,0CKJ2026ZD,0,,Android, 4.1.2,,,,,,
9,6/29/2017,15:25.4,0m 14.9s,14.9,39.9611744,-106.2164963,0,0,0.3,8128,0,0,0,0,0,0,0,0,7,2.3,-100.3,259.7,Manual Takeoff,Other,Takeoff (RC Assisted),14,5,TRUE,,Phantom 4 Pro,TRUE,FALSE,,Smart,RC,TRUE,TRUE,FALSE,,,TRUE,,FALSE,FALSE,FALSE,FALSE,FALSE,FALSE,FALSE,FALSE,FALSE,FALSE,0,FPV,49.5,-21.6,14.4,14.4,FALSE,FALSE,TRUE,FALSE,FALSE,FALSE,,FALSE,Normal,,,1024,1024,1024,1024,1,FALSE,FALSE,FALSE,FALSE,FALSE,0,FALSE,FALSE,FALSE,FALSE,97,17.098,5854,6036,17.099,FALSE,4.264,4.264,4.258,4.256,0.008,FALSE,FALSE,62.048,102.1,102.1,102.1,0,0,0,0,0,0,1613.52,,Idle,0,30,FALSE,10,TRUE,0,Go Home,39.96117754,-106.2165129,4.8,8339.7,,TRUE,1,1,FALSE,FALSE,FALSE,FALSE,0,TRUE,FALSE,FALSE,Course Lock,98.4,,9.8,Calm,4,Android, 4.1.2,df005,07JDE5300200GN,,0CKJ2026ZD,0,76.335,12.3,9.5,0.9,1.1,0,0,df005,07JDE5300200GN,,0CKJ2026ZD,0,,Android, 4.1.2,,,,,,
10,6/29/2017,15:25.6,0m 15.1s,15.1,39.9611744,-106.2164962,0,0,0.3,8128,0,0,0,0,0,0,0,0,7,2.3,-100.3,259.7,Manual Takeoff,Other,Takeoff (RC Assisted),14,5,TRUE,,Phantom 4 Pro,TRUE,FALSE,,Smart,RC,TRUE,TRUE,FALSE,,,TRUE,,FALSE,FALSE,FALSE,FALSE,FALSE,FALSE,FALSE,FALSE,FALSE,FALSE,0,FPV,48.8,-21.4,14.1,14.1,FALSE,FALSE,TRUE,FALSE,FALSE,FALSE,,FALSE,Normal,,,1024,1024,1024,1024,1,FALSE,FALSE,FALSE,FALSE,FALSE,0,FALSE,FALSE,FALSE,FALSE,97,17.072,5854,6036,17.074,FALSE,4.27,4.272,4.27,4.27,0.008,FALSE,FALSE,63.414,102.1,102.1,102.1,0,0,0,0,0,0,1950.71,,Idle,0,30,FALSE,10,TRUE,0,Go Home,39.96117754,-106.2165129,4.8,8339.1,98.4,TRUE,1,1,FALSE,FALSE,FALSE,FALSE,0,TRUE,FALSE,FALSE,Course Lock,98.4,,9.8,Calm,4,Android, 4.1.2,df005,07JDE5300200GN,,0CKJ2026ZD,0,76.335,12.3,9.5,0.9,1.1,0,0,df005,07JDE5300200GN,,0CKJ2026ZD,0,,Android, 4.1.2,,,,,,
11,6/29/2017,15:26.0,0m 15.6s,15.6,39.96117439,-106.2164962,0,0,0.3,8128,0,0,0,0,0,0,0,0,7,2.4,-100.3,259.7,Manual Takeoff,Other,Takeoff (RC Assisted),14,5,TRUE,,Phantom 4 Pro,TRUE,FALSE,,Smart,RC,TRUE,TRUE,FALSE,,,TRUE,,FALSE,FALSE,FALSE,FALSE,FALSE,FALSE,FALSE,FALSE,FALSE,FALSE,0,FPV,48.8,-21.4,14.1,14.1,FALSE,FALSE,TRUE,FALSE,FALSE,FALSE,,FALSE,Normal,,,1024,1024,1024,1024,1,FALSE,FALSE,FALSE,FALSE,FALSE,0,FALSE,FALSE,FALSE,FALSE,97,17.072,5854,6036,17.074,FALSE,4.27,4.272,4.27,4.27,0.008,FALSE,FALSE,63.414,102.1,102.1,102.1,0,0,0,0,0,0,1950.71,,Idle,0,30,FALSE,10,TRUE,0,Go Home,39.96117754,-106.2165129,4.8,8339.1,98.4,TRUE,1,1,FALSE,FALSE,FALSE,FALSE,0,TRUE,FALSE,FALSE,Course Lock,98.4,,9.8,Calm,4,Android, 4.1.2,df005,07JDE5300200GN,,0CKJ2026ZD,0,76.335,12.3,9.5,0.9,1.1,0,0,df005,07JDE5300200GN,,0CKJ2026ZD,0,,Android, 4.1.2,,,,,,
12,6/29/2017,15:26.3,0m 15.8s,15.8,39.96117434,-106.2164961,0,0,0.3,8128,0,0,0,0,0,0,0,0,7,2.4,-100.3,259.7,Manual Takeoff,Other,Takeoff (RC Assisted),14,5,TRUE,,Phantom 4 Pro,TRUE,FALSE,,Smart,RC,TRUE,TRUE,FALSE,,,TRUE,,FALSE,FALSE,FALSE,FALSE,FALSE,FALSE,FALSE,FALSE,FALSE,FALSE,0,FPV,48.5,-21.3,14,14,FALSE,FALSE,TRUE,FALSE,FALSE,FALSE,,FALSE,Normal,,,1024,1024,1024,1024,1,FALSE,FALSE,FALSE,FALSE,FALSE,0,FALSE,FALSE,FALSE,FALSE,97,17.072,5854,6036,17.074,FALSE,4.27,4.272,4.27,4.27,0.008,FALSE,FALSE,63.414,102.1,102.1,102.1,0,0,0,0,0,0,1950.71,,Idle,0,30,FALSE,10,TRUE,0,Go Home,39.96117754,-106.2165129,4.8,8339.1,98.4,TRUE,1,1,FALSE,FALSE,FALSE,FALSE,0,TRUE,FALSE,FALSE,Course Lock,98.4,,9.8,Calm,4,Android, 4.1.2,df005,07JDE5300200GN,,0CKJ2026ZD,0,76.335,12.3,9.5,0.9,1.1,0,0,df005,07JDE5300200GN,,0CKJ2026ZD,0,,Android, 4.1.2,,,,,,
13,6/29/2017,15:26.5,0m 16.0s,16,39.96117432,-106.2164961,0,0,0.3,8128,0,0,0,0,0,0,0,0,7,2.4,-100.3,259.7,Manual Takeoff,Other,Takeoff (RC Assisted),14,5,TRUE,,Phantom 4 Pro,TRUE,FALSE,,Smart,RC,TRUE,TRUE,FALSE,,,TRUE,,FALSE,FALSE,FALSE,FALSE,FALSE,FALSE,FALSE,FALSE,FALSE,FALSE,0,FPV,47.8,-21.1,13.8,13.8,FALSE,FALSE,TRUE,FALSE,FALSE,FALSE,,FALSE,Normal,,,1024,1024,1024,1024,1,FALSE,FALSE,FALSE,FALSE,FALSE,0,FALSE,FALSE,FALSE,FALSE,97,17.072,5854,6036,17.074,FALSE,4.27,4.272,4.27,4.27,0.008,FALSE,FALSE,63.414,102.1,102.1,102.1,0,0,0,0,0,0,1950.71,,Idle,0,30,FALSE,10,TRUE,0,Go Home,39.96117754,-106.2165129,4.9,8339.1,98.4,TRUE,1,1,FALSE,FALSE,FALSE,FALSE,0,TRUE,FALSE,FALSE,Course Lock,98.4,,9.8,Calm,4,Android, 4.1.2,df005,07JDE5300200GN,,0CKJ2026ZD,0,76.335,12.3,9.5,0.9,1.1,0,0,df005,07JDE5300200GN,,0CKJ2026ZD,0,,Android, 4.1.2,,,,,,Downlink Lost.
14,6/29/2017,15:27.7,0m 17.2s,17.2,39.96117427,-106.216496,0,0,0.3,8128,0,0,0,0,0,0,0,0,7,2.4,-100.3,259.7,Manual Takeoff,Other,Takeoff (RC Assisted),15,5,TRUE,,Phantom 4 Pro,TRUE,FALSE,,Smart,RC,TRUE,TRUE,FALSE,,,TRUE,,FALSE,FALSE,FALSE,FALSE,FALSE,FALSE,FALSE,FALSE,FALSE,FALSE,0,FPV,46.7,-20.7,13.3,13.3,FALSE,FALSE,TRUE,FALSE,FALSE,FALSE,,FALSE,Normal,,,1024,1024,1024,1024,1,FALSE,FALSE,FALSE,FALSE,FALSE,0,FALSE,FALSE,FALSE,FALSE,97,17.072,5854,6036,17.074,FALSE,4.27,4.272,4.27,4.27,0.008,FALSE,FALSE,63.414,102.1,102.1,102.1,0,0,0,0,0,0,1950.71,,Idle,0,30,FALSE,10,TRUE,0,Go Home,39.96117754,-106.2165129,4.9,8339.1,98.4,TRUE,1,1,FALSE,FALSE,FALSE,FALSE,0,TRUE,FALSE,FALSE,Course Lock,98.4,,9.8,Calm,4,Android, 4.1.2,df005,07JDE5300200GN,,0CKJ2026ZD,0,76.335,12.3,9.5,0.9,1.1,0,0,df005,07JDE5300200GN,,0CKJ2026ZD,0,,Android, 4.1.2,,,,Downlink Restored (after 0m 1.2s).,,
15,6/29/2017,15:28.4,0m 17.9s,17.9,39.96117416,-106.2164959,0,0,0.3,8128,0.1,0.1,0,0,0,0,0,0,7,2.4,-100.3,259.7,Manual Takeoff,Other,Takeoff (RC Assisted),15,5,TRUE,,Phantom 4 Pro,TRUE,FALSE,,Smart,RC,TRUE,TRUE,FALSE,,,TRUE,,FALSE,FALSE,FALSE,FALSE,FALSE,FALSE,FALSE,FALSE,FALSE,FALSE,0,FPV,46.1,-20.6,13.1,13.1,FALSE,FALSE,TRUE,FALSE,FALSE,FALSE,,FALSE,Normal,,,1024,1024,1024,1024,1,FALSE,FALSE,FALSE,FALSE,FALSE,0,FALSE,FALSE,FALSE,FALSE,97,17.072,5854,6036,17.074,FALSE,4.27,4.272,4.27,4.27,0.008,FALSE,FALSE,63.414,102.1,102.1,102.1,0,0,0,0,0,0,1950.71,,Idle,0,30,FALSE,10,TRUE,0,Go Home,39.96117754,-106.2165129,4.9,8339.1,98.4,TRUE,1,1,FALSE,FALSE,FALSE,FALSE,0,TRUE,FALSE,FALSE,Course Lock,98.4,,9.8,Calm,4,Android, 4.1.2,df005,07JDE5300200GN,,0CKJ2026ZD,0,76.335,12.3,9.5,0.9,1.1,0,0,df005,07JDE5300200GN,,0CKJ2026ZD,0,,Android, 4.1.2,,,,,,
16,6/29/2017,15:28.9,0m 18.4s,18.4,39.9611741,-106.216496,0,0,0.3,8128,0,0.1,0,0,0,0,0,0,7,2.4,-100.3,259.7,Manual Takeoff,Other,Takeoff (RC Assisted),15,5,TRUE,,Phantom 4 Pro,TRUE,FALSE,,Smart,RC,TRUE,TRUE,FALSE,,,TRUE,,FALSE,FALSE,FALSE,FALSE,FALSE,FALSE,FALSE,FALSE,FALSE,FALSE,0,FPV,46.1,-20.6,13.1,13.1,FALSE,FALSE,TRUE,FALSE,FALSE,FALSE,,FALSE,Normal,,,1024,1024,1024,1024,1,FALSE,FALSE,FALSE,FALSE,FALSE,0,FALSE,FALSE,FALSE,FALSE,97,17.072,5854,6036,17.074,FALSE,4.27,4.272,4.27,4.27,0.008,FALSE,FALSE,63.414,102.1,102.1,102.1,0,0,0,0,0,0,1950.71,,Idle,0,30,FALSE,10,TRUE,0,Go Home,39.96117754,-106.2165129,4.9,8339.1,98.4,TRUE,1,1,FALSE,FALSE,FALSE,FALSE,0,TRUE,FALSE,FALSE,Course Lock,98.4,,9.8,Calm,4,Android, 4.1.2,df005,07JDE5300200GN,,0CKJ2026ZD,0,76.335,12.3,9.5,0.9,1.1,0,0,df005,07JDE5300200GN,,0CKJ2026ZD,0,,Android, 4.1.2,,,,,,
17,6/29/2017,15:29.1,0m 18.6s,18.6,39.96117408,-106.216496,0,0,0.3,8128,0,0.1,0,0,0,0,0,0,7,2.4,-100.3,259.7,Manual Takeoff,Other,Takeoff (RC Assisted),15,5,TRUE,,Phantom 4 Pro,TRUE,FALSE,,Smart,RC,TRUE,TRUE,FALSE,,,TRUE,,FALSE,FALSE,FALSE,FALSE,FALSE,FALSE,FALSE,FALSE,FALSE,FALSE,0,FPV,46.1,-20.6,13.1,13.1,FALSE,FALSE,TRUE,FALSE,FALSE,FALSE,,FALSE,Normal,,,1024,1024,1024,1024,1,FALSE,FALSE,FALSE,FALSE,FALSE,0,FALSE,FALSE,FALSE,FALSE,97,17.072,5854,6036,17.074,FALSE,4.27,4.272,4.27,4.27,0.008,FALSE,FALSE,63.414,102.1,102.1,102.1,0,0,0,0,0,0,1950.71,,Idle,0,30,FALSE,10,TRUE,0,Go Home,39.96117754,-106.2165129,4.9,8339.1,98.4,TRUE,1,1,FALSE,FALSE,FALSE,FALSE,0,TRUE,FALSE,FALSE,Course Lock,98.4,,9.8,Calm,4,Android, 4.1.2,df005,07JDE5300200GN,,0CKJ2026ZD,0,76.335,12.3,9.5,0.9,1.1,0,0,df005,07JDE5300200GN,,0CKJ2026ZD,0,,Android, 4.1.2,,,,,,
18,6/29/2017,15:29.5,0m 19.0s,19,39.96117407,-106.2164959,0,0,0.3,8128,0,0.1,0,0,0,0,0,0,7,2.4,-100.3,259.7,Manual Takeoff,Other,Takeoff (RC Assisted),15,5,TRUE,,Phantom 4 Pro,TRUE,FALSE,,Smart,RC,TRUE,TRUE,FALSE,,,TRUE,,FALSE,FALSE,FALSE,FALSE,FALSE,FALSE,FALSE,FALSE,FALSE,FALSE,0,FPV,45.6,-20.4,12.9,12.9,FALSE,FALSE,TRUE,FALSE,FALSE,FALSE,,FALSE,Normal,,,1024,1024,1024,1024,1,FALSE,FALSE,FALSE,FALSE,FALSE,0,FALSE,FALSE,FALSE,FALSE,97,17.072,5854,6036,17.074,FALSE,4.27,4.272,4.27,4.27,0.008,FALSE,FALSE,63.414,102.1,102.1,102.1,0,0,0,0,0,0,1950.71,,Idle,0,30,FALSE,10,TRUE,0,Go Home,39.96117754,-106.2165129,4.9,8339.1,98.4,TRUE,1,1,FALSE,FALSE,FALSE,FALSE,0,TRUE,FALSE,FALSE,Course Lock,98.4,,9.8,Calm,4,Android, 4.1.2,df005,07JDE5300200GN,,0CKJ2026ZD,0,76.335,12.3,9.5,0.9,1.1,0,0,df005,07JDE5300200GN,,0CKJ2026ZD,0,,Android, 4.1.2,,,,,,
19,6/29/2017,15:29.6,0m 19.1s,19.1,39.96117408,-106.2164959,0,0,0.3,8128,0,0.1,0,0,0,0,0,0,7,2.4,-100.3,259.7,Manual Takeoff,Other,Takeoff (RC Assisted),15,5,TRUE,,Phantom 4 Pro,TRUE,FALSE,,Smart,RC,TRUE,TRUE,FALSE,,,TRUE,,FALSE,FALSE,FALSE,FALSE,FALSE,FALSE,FALSE,FALSE,FALSE,FALSE,0,FPV,45,-20.2,12.7,12.7,FALSE,FALSE,TRUE,FALSE,FALSE,FALSE,,FALSE,Normal,,,1024,1024,1024,1024,1,FALSE,FALSE,FALSE,FALSE,FALSE,0,FALSE,FALSE,FALSE,FALSE,97,17.072,5854,6036,17.074,FALSE,4.27,4.272,4.27,4.27,0.008,FALSE,FALSE,63.414,102.1,102.1,102.1,0,0,0,0,0,0,1950.71,,Idle,0,30,FALSE,10,TRUE,0,Go Home,39.96117754,-106.2165129,4.9,8339.1,98.4,TRUE,1,1,FALSE,FALSE,FALSE,FALSE,0,TRUE,FALSE,FALSE,Course Lock,98.4,,9.8,Calm,4,Android, 4.1.2,df005,07JDE5300200GN,,0CKJ2026ZD,0,76.335,12.3,9.5,0.9,1.1,0,0,df005,07JDE5300200GN,,0CKJ2026ZD,0,,Android, 4.1.2,,,,,,
20,6/29/2017,15:30.2,0m 19.8s,19.8,39.96117398,-106.2164959,0,0,0.3,8128,0,0.1,0,0,0,0,0,0,7,2.4,-100.3,259.7,Manual Takeoff,Other,Takeoff (RC Assisted),15,5,TRUE,,Phantom 4 Pro,TRUE,FALSE,,Smart,RC,TRUE,TRUE,FALSE,,,TRUE,,FALSE,FALSE,FALSE,FALSE,FALSE,FALSE,FALSE,FALSE,FALSE,FALSE,0,FPV,44.4,-20,12.5,12.5,FALSE,FALSE,TRUE,FALSE,FALSE,FALSE,,FALSE,Normal,,,1024,1024,1024,1024,1,FALSE,FALSE,FALSE,FALSE,FALSE,0,FALSE,FALSE,FALSE,FALSE,97,17.072,5854,6036,17.073,FALSE,4.27,4.272,4.27,4.27,0.008,FALSE,FALSE,63.386,102.1,102.1,102.1,0,0,0,0,0,0,2137.85,,Idle,0,30,FALSE,10,TRUE,0,Go Home,39.96117754,-106.2165129,4.9,8339.1,98.4,TRUE,1,1,FALSE,FALSE,FALSE,FALSE,0,TRUE,FALSE,FALSE,Course Lock,98.4,,9.8,Calm,4,Android, 4.1.2,df005,07JDE5300200GN,,0CKJ2026ZD,0,76.335,12.3,9.5,0.9,1.1,0,0,df005,07JDE5300200GN,,0CKJ2026ZD,0,,Android, 4.1.2,,,,,,
21,6/29/2017,15:30.9,0m 20.4s,20.4,39.961174,-106.2164959,0,0,0.3,8128,0,0.1,0,0,0,0,0,0,7,2.4,-100.3,259.7,Manual Takeoff,Other,Takeoff (RC Assisted),15,5,TRUE,,Phantom 4 Pro,TRUE,FALSE,,Smart,RC,TRUE,TRUE,FALSE,,,TRUE,,FALSE,FALSE,FALSE,FALSE,FALSE,FALSE,FALSE,FALSE,FALSE,FALSE,0,FPV,44.4,-20,12.5,12.5,FALSE,FALSE,TRUE,FALSE,FALSE,FALSE,,FALSE,Normal,,,1024,1024,1024,1024,1,FALSE,FALSE,FALSE,FALSE,FALSE,0,FALSE,FALSE,FALSE,FALSE,97,17.072,5854,6036,17.073,FALSE,4.27,4.272,4.27,4.27,0.008,FALSE,FALSE,63.386,102.1,102.1,102.1,0,0,0,0,0,0,2137.85,,Idle,0,30,FALSE,10,TRUE,0,Go Home,39.96117754,-106.2165129,4.9,8339.1,98.4,TRUE,1,1,FALSE,FALSE,FALSE,FALSE,0,TRUE,FALSE,FALSE,Course Lock,98.4,,9.8,Calm,4,Android, 4.1.2,df005,07JDE5300200GN,,0CKJ2026ZD,0,76.335,12.3,9.5,0.9,1.1,0,0,df005,07JDE5300200GN,,0CKJ2026ZD,0,,Android, 4.1.2,,,,,,
22,6/29/2017,15:31.0,0m 20.5s,20.5,39.961174,-106.2164959,0,0,0.3,8128,0,0.1,0,0,0,0,0,0,7,2.4,-100.3,259.7,Manual Takeoff,Other,Takeoff (RC Assisted),15,5,TRUE,,Phantom 4 Pro,TRUE,FALSE,,Smart,RC,TRUE,TRUE,FALSE,,,TRUE,,FALSE,FALSE,FALSE,FALSE,FALSE,FALSE,FALSE,FALSE,FALSE,FALSE,0,FPV,43.7,-19.8,12.3,12.3,FALSE,FALSE,TRUE,FALSE,FALSE,FALSE,,FALSE,Normal,,,1024,1024,1024,1024,1,FALSE,FALSE,FALSE,FALSE,FALSE,0,FALSE,FALSE,FALSE,FALSE,97,17.072,5854,6036,17.073,FALSE,4.27,4.272,4.27,4.27,0.008,FALSE,FALSE,63.386,102.1,102.1,102.1,0,0,0,0,0,0,2137.85,,Idle,0,30,FALSE,10,TRUE,0,Go Home,39.96117754,-106.2165129,4.9,8339.1,98.4,TRUE,1,1,FALSE,FALSE,FALSE,FALSE,0,TRUE,FALSE,FALSE,Course Lock,98.4,,9.8,Calm,4,Android, 4.1.2,df005,07JDE5300200GN,,0CKJ2026ZD,0,76.335,12.3,9.5,0.9,1.1,0,0,df005,07JDE5300200GN,,0CKJ2026ZD,0,,Android, 4.1.2,,,,,,
23,6/29/2017,15:31.7,0m 21.2s,21.2,39.96117404,-106.2164958,0,0,0.3,8128,0,0.1,0,0,0,0,0,0,7,2.4,-100.3,259.7,Manual Takeoff,Other,Takeoff (RC Assisted),16,5,TRUE,,Phantom 4 Pro,TRUE,FALSE,,Smart,RC,TRUE,TRUE,FALSE,,,TRUE,,FALSE,FALSE,FALSE,FALSE,FALSE,FALSE,FALSE,FALSE,FALSE,FALSE,0,FPV,42.9,-19.6,12,12,FALSE,FALSE,TRUE,FALSE,FALSE,FALSE,,FALSE,Normal,,,1024,1024,1024,1024,1,FALSE,FALSE,FALSE,FALSE,FALSE,0,FALSE,FALSE,FALSE,FALSE,97,17.072,5854,6036,17.073,FALSE,4.27,4.272,4.27,4.27,0.008,FALSE,FALSE,63.386,102.1,102.1,102.1,0,0,0,0,0,0,2137.85,,Idle,0,30,FALSE,10,TRUE,0,Go Home,39.96117754,-106.2165129,5,8339.1,98.4,TRUE,1,1,FALSE,FALSE,FALSE,FALSE,0,TRUE,FALSE,FALSE,Course Lock,98.4,,9.8,Calm,4,Android, 4.1.2,df005,07JDE5300200GN,,0CKJ2026ZD,0,76.335,12.3,9.5,0.9,1.1,0,0,df005,07JDE5300200GN,,0CKJ2026ZD,0,,Android, 4.1.2,,,,,,
24,6/29/2017,15:32.4,0m 21.9s,21.9,39.96117398,-106.2164957,0,0,0.3,8128,0,0.1,0,0,0,0,0,0,7,2.4,-100.3,259.7,Manual Takeoff,Other,Takeoff (RC Assisted),15,5,TRUE,,Phantom 4 Pro,TRUE,FALSE,,Smart,RC,TRUE,TRUE,FALSE,,,TRUE,,FALSE,FALSE,FALSE,FALSE,FALSE,FALSE,FALSE,FALSE,FALSE,FALSE,0,FPV,42.6,-19.5,11.9,11.9,FALSE,FALSE,TRUE,FALSE,FALSE,FALSE,,FALSE,Normal,,,1024,1024,1024,1024,1,FALSE,FALSE,FALSE,FALSE,FALSE,0,FALSE,FALSE,FALSE,FALSE,97,17.072,5854,6036,17.073,FALSE,4.27,4.272,4.27,4.27,0.008,FALSE,FALSE,63.386,102.1,102.1,102.1,0,0,0,0,0,0,2137.85,,Idle,0,30,FALSE,10,TRUE,0,Go Home,39.96117754,-106.2165129,5,8339.1,98.4,TRUE,1,1,FALSE,FALSE,FALSE,FALSE,0,TRUE,FALSE,FALSE,Course Lock,98.4,,9.8,Calm,4,Android, 4.1.2,df005,07JDE5300200GN,,0CKJ2026ZD,0,76.335,12.3,9.5,0.9,1.1,0,0,df005,07JDE5300200GN,,0CKJ2026ZD,0,,Android, 4.1.2,,,,,,Downlink Lost.
25,6/29/2017,15:33.4,0m 23.0s,23,39.96117379,-106.2164957,0,0,0.3,8128,0,0.1,0,0,0,0,0,0,7,2.4,-100.3,259.7,Manual Takeoff,Other,Takeoff (RC Assisted),15,5,TRUE,,Phantom 4 Pro,TRUE,FALSE,,Smart,RC,TRUE,TRUE,FALSE,,,TRUE,,FALSE,FALSE,FALSE,FALSE,FALSE,FALSE,FALSE,FALSE,FALSE,FALSE,0,FPV,41.2,-19,11.4,11.4,FALSE,FALSE,TRUE,FALSE,FALSE,FALSE,,FALSE,Normal,,,1024,1024,1024,1024,1,FALSE,FALSE,FALSE,FALSE,FALSE,0,FALSE,FALSE,FALSE,FALSE,97,17.072,5854,6036,17.073,FALSE,4.27,4.272,4.27,4.27,0.008,FALSE,FALSE,63.386,102.1,102.1,102.1,0,0,0,0,0,0,2137.85,,Idle,0,30,FALSE,10,TRUE,0,Go Home,39.96117754,-106.2165129,5,8339.1,98.4,TRUE,1,1,FALSE,FALSE,FALSE,FALSE,0,TRUE,FALSE,FALSE,Course Lock,98.4,,9.8,Calm,4,Android, 4.1.2,df005,07JDE5300200GN,,0CKJ2026ZD,0,76.335,12.3,9.5,0.9,1.1,0,0,df005,07JDE5300200GN,,0CKJ2026ZD,0,,Android, 4.1.2,,,,Downlink Restored (after 0m 1.1s).,,
26,6/29/2017,15:34.4,0m 24.0s,24,39.96117359,-106.2164957,0,0,0.3,8128,0,0.1,0,0,0,0,0,0,7,2.4,-100.3,259.7,Manual Takeoff,Other,Takeoff (RC Assisted),15,5,TRUE,,Phantom 4 Pro,TRUE,FALSE,,Smart,RC,TRUE,TRUE,FALSE,,,TRUE,,FALSE,FALSE,FALSE,FALSE,FALSE,FALSE,FALSE,FALSE,FALSE,FALSE,0,FPV,41.2,-19,11.4,11.4,FALSE,FALSE,TRUE,FALSE,FALSE,FALSE,,FALSE,Normal,,,1024,1024,1024,1024,1,FALSE,FALSE,FALSE,FALSE,FALSE,0,FALSE,FALSE,FALSE,FALSE,97,17.072,5854,6036,17.073,FALSE,4.27,4.272,4.27,4.27,0.008,FALSE,FALSE,63.386,102.1,102.1,102.1,0,0,0,0,0,0,2137.85,,Idle,0,30,FALSE,10,TRUE,0,Go Home,39.96117754,-106.2165129,5,8339.1,98.4,TRUE,1,1,FALSE,FALSE,FALSE,FALSE,0,TRUE,FALSE,FALSE,Course Lock,98.4,,9.8,Calm,4,Android, 4.1.2,df005,07JDE5300200GN,,0CKJ2026ZD,0,76.335,12.3,9.5,0.9,1.1,0,0,df005,07JDE5300200GN,,0CKJ2026ZD,0,,Android, 4.1.2,,,,Downlink Restored (after 0m 1s).,,
27,6/29/2017,15:34.8,0m 24.4s,24.4,39.96117356,-106.2164956,0,0,0.3,8128,0.2,0.2,0,0,0,0,0,0,7,2.4,-100.3,259.7,Manual Takeoff,Other,Takeoff (RC Assisted),15,5,TRUE,,Phantom 4 Pro,TRUE,FALSE,,Smart,RC,TRUE,TRUE,FALSE,,,TRUE,,FALSE,FALSE,FALSE,FALSE,FALSE,FALSE,FALSE,FALSE,FALSE,FALSE,0,FPV,41.2,-19,11.4,11.4,FALSE,FALSE,TRUE,FALSE,FALSE,FALSE,,FALSE,Normal,,,1024,1024,1024,1024,1,FALSE,FALSE,FALSE,FALSE,FALSE,0,FALSE,FALSE,FALSE,FALSE,97,17.072,5854,6036,17.073,FALSE,4.27,4.272,4.27,4.27,0.008,FALSE,FALSE,63.386,102.1,102.1,102.1,0,0,0,0,0,0,2137.85,,Idle,0,30,FALSE,10,TRUE,0,Go Home,39.96117754,-106.2165129,5.1,8339.1,98.4,TRUE,1,1,FALSE,FALSE,FALSE,FALSE,0,TRUE,FALSE,FALSE,Course Lock,98.4,,9.8,Calm,4,Android, 4.1.2,df005,07JDE5300200GN,,0CKJ2026ZD,0,76.335,12.3,9.5,0.9,1.1,0,0,df005,07JDE5300200GN,,0CKJ2026ZD,0,,Android, 4.1.2,,,,,,
28,6/29/2017,15:34.9,0m 24.5s,24.5,39.96117356,-106.2164956,0,0,0.3,8128,0.4,0.4,0,0,0,0,0,0,7,2.4,-100.3,259.7,Manual Takeoff,Other,Takeoff (RC Assisted),15,5,TRUE,,Phantom 4 Pro,TRUE,FALSE,,Smart,RC,TRUE,TRUE,FALSE,,,TRUE,,FALSE,FALSE,FALSE,FALSE,FALSE,FALSE,FALSE,FALSE,FALSE,FALSE,0,FPV,39.8,-18.5,10.9,10.9,FALSE,FALSE,TRUE,FALSE,FALSE,FALSE,,FALSE,Normal,,,1024,1024,1024,1024,1,FALSE,FALSE,FALSE,FALSE,FALSE,0,FALSE,FALSE,FALSE,FALSE,97,17.072,5854,6036,17.073,FALSE,4.27,4.272,4.27,4.27,0.008,FALSE,FALSE,63.386,102.1,102.1,102.1,0,0,0,0,0,0,2137.85,,Idle,0,30,FALSE,10,TRUE,0,Go Home,39.96117754,-106.2165129,5.1,8339.1,98.4,TRUE,1,1,FALSE,FALSE,FALSE,FALSE,0,TRUE,FALSE,FALSE,Course Lock,98.4,,9.8,Calm,4,Android, 4.1.2,df005,07JDE5300200GN,,0CKJ2026ZD,0,76.335,12.3,9.5,0.9,1.1,0,0,df005,07JDE5300200GN,,0CKJ2026ZD,0,,Android, 4.1.2,,,,,,Downlink Lost.
29,6/29/2017,15:36.5,0m 26.1s,26.1,39.9611734,-106.2164955,0,0,0.3,8128,0,0.4,0,0,0,0,0,0,7,2.4,-100.3,259.7,Manual Takeoff,Other,Takeoff (RC Assisted),15,5,TRUE,,Phantom 4 Pro,TRUE,FALSE,,Smart,RC,TRUE,TRUE,FALSE,,,TRUE,,FALSE,FALSE,FALSE,FALSE,FALSE,FALSE,FALSE,FALSE,FALSE,FALSE,0,FPV,38.7,-18.1,10.5,10.5,FALSE,FALSE,TRUE,FALSE,FALSE,FALSE,,FALSE,Normal,,,1024,1024,1024,1024,1,FALSE,FALSE,FALSE,FALSE,FALSE,0,FALSE,FALSE,FALSE,FALSE,97,17.072,5854,6036,17.073,FALSE,4.27,4.272,4.27,4.27,0.008,FALSE,FALSE,63.386,102.1,102.1,102.1,0,0,0,0,0,0,2137.85,,Idle,0,30,FALSE,10,TRUE,0,Go Home,39.96117754,-106.2165129,5.1,8339.1,98.4,TRUE,1,1,FALSE,FALSE,FALSE,FALSE,0,TRUE,FALSE,FALSE,Course Lock,98.4,,9.8,Calm,4,Android, 4.1.2,df005,07JDE5300200GN,,0CKJ2026ZD,0,76.335,12.3,9.5,0.9,1.1,0,0,df005,07JDE5300200GN,,0CKJ2026ZD,0,,Android, 4.1.2,,,,Downlink Restored (after 0m 1.6s).,,
30,6/29/2017,15:37.4,0m 27.0s,27,39.96117339,-106.2164955,0,0,0.3,8128,0,0.4,0,0,0,0,0,0,7,2.3,-100.3,259.7,Manual Takeoff,Other,Takeoff (RC Assisted),15,5,TRUE,,Phantom 4 Pro,TRUE,FALSE,,Smart,RC,TRUE,TRUE,FALSE,,,TRUE,,FALSE,FALSE,FALSE,FALSE,FALSE,FALSE,FALSE,FALSE,FALSE,FALSE,0,FPV,38.1,-17.9,10.4,10.4,FALSE,FALSE,TRUE,FALSE,FALSE,FALSE,,FALSE,Normal,,,1024,1024,1024,1024,1,FALSE,FALSE,FALSE,FALSE,FALSE,0,FALSE,FALSE,FALSE,FALSE,97,17.072,5854,6036,17.071,FALSE,4.269,4.271,4.269,4.269,0.008,FALSE,FALSE,63.458,102.1,102.1,102.1,0,0,0,0,0,0,2133.19,,Idle,0,30,FALSE,10,TRUE,0,Go Home,39.96117754,-106.2165129,5.1,8339.1,98.4,TRUE,1,1,FALSE,FALSE,FALSE,FALSE,0,TRUE,FALSE,FALSE,Course Lock,98.4,,9.8,Calm,4,Android, 4.1.2,df005,07JDE5300200GN,,0CKJ2026ZD,0,76.335,12.3,9.5,0.9,1.1,0,0,df005,07JDE5300200GN,,0CKJ2026ZD,0,,Android, 4.1.2,,,,,,
31,6/29/2017,15:37.8,0m 27.3s,27.3,39.96117335,-106.2164954,0,0,0.3,8128,0,0.4,0,0,0,0,0,0,7,2.3,-100.3,259.7,Manual Takeoff,Other,Takeoff (RC Assisted),15,5,TRUE,,Phantom 4 Pro,TRUE,FALSE,,Smart,RC,TRUE,TRUE,FALSE,,,TRUE,,FALSE,FALSE,FALSE,FALSE,FALSE,FALSE,FALSE,FALSE,FALSE,FALSE,0,FPV,37.3,-17.7,10.1,10.1,FALSE,FALSE,TRUE,FALSE,FALSE,FALSE,,FALSE,Normal,,,1024,1024,1024,1024,1,FALSE,FALSE,FALSE,FALSE,FALSE,0,FALSE,FALSE,FALSE,FALSE,97,17.072,5854,6036,17.071,FALSE,4.269,4.271,4.269,4.269,0.008,FALSE,FALSE,63.458,102.1,102.1,102.1,0,0,0,0,0,0,2133.19,,Idle,0,30,FALSE,10,TRUE,0,Go Home,39.96117754,-106.2165129,5.1,8339.1,98.4,TRUE,1,1,FALSE,FALSE,FALSE,FALSE,0,TRUE,FALSE,FALSE,Course Lock,98.4,,9.8,Calm,4,Android, 4.1.2,df005,07JDE5300200GN,,0CKJ2026ZD,0,76.335,12.3,9.5,0.9,1.1,0,0,df005,07JDE5300200GN,,0CKJ2026ZD,0,,Android, 4.1.2,,,,,,Downlink Lost.
32,6/29/2017,15:38.9,0m 28.4s,28.4,39.96117318,-106.2164953,0,0,0.3,8128,0,0.4,0,0,0,0,0,0,7,2.3,-100.4,259.6,Manual Takeoff,Other,Takeoff (RC Assisted),15,5,TRUE,,Phantom 4 Pro,TRUE,FALSE,,Smart,RC,TRUE,TRUE,FALSE,,,TRUE,,FALSE,FALSE,FALSE,FALSE,FALSE,FALSE,FALSE,FALSE,FALSE,FALSE,0,FPV,36.9,-17.5,10,10,FALSE,FALSE,TRUE,FALSE,FALSE,FALSE,,FALSE,Normal,,,1024,1024,1024,1024,1,FALSE,FALSE,FALSE,FALSE,FALSE,0,FALSE,FALSE,FALSE,FALSE,97,17.072,5854,6036,17.071,FALSE,4.269,4.271,4.269,4.269,0.008,FALSE,FALSE,63.458,102.1,102.1,102.1,0,0,0,0,0,0,2133.19,,Idle,0,30,FALSE,10,TRUE,0,Go Home,39.96117754,-106.2165129,5.2,8339.1,98.4,TRUE,1,1,FALSE,FALSE,FALSE,FALSE,0,TRUE,FALSE,FALSE,Course Lock,98.4,,9.8,Calm,4,Android, 4.1.2,df005,07JDE5300200GN,,0CKJ2026ZD,0,76.335,12.3,9.5,0.9,1.1,0,0,df005,07JDE5300200GN,,0CKJ2026ZD,0,,Android, 4.1.2,,,,Downlink Restored (after 0m 1.1s).,,
33,6/29/2017,15:39.4,0m 28.9s,28.9,39.96117317,-106.2164952,0,0,0.3,8128,0,0.4,0,0,0,0,0,0,7,2.3,-100.4,259.6,Manual Takeoff,Other,Takeoff (RC Assisted),16,5,TRUE,,Phantom 4 Pro,TRUE,FALSE,,Smart,RC,TRUE,TRUE,FALSE,,,TRUE,,FALSE,FALSE,FALSE,FALSE,FALSE,FALSE,FALSE,FALSE,FALSE,FALSE,0,FPV,36.2,-17.3,9.8,9.8,FALSE,FALSE,TRUE,FALSE,FALSE,FALSE,,FALSE,Normal,,,1024,1024,1024,1024,1,FALSE,FALSE,FALSE,FALSE,FALSE,0,FALSE,FALSE,FALSE,FALSE,97,17.072,5854,6036,17.071,FALSE,4.269,4.271,4.269,4.269,0.008,FALSE,FALSE,63.458,102.1,102.1,102.1,0,0,0,0,0,0,2133.19,,Idle,0,30,FALSE,10,TRUE,0,Go Home,39.96117754,-106.2165129,5.2,8339.1,98.4,TRUE,1,1,FALSE,FALSE,FALSE,FALSE,0,TRUE,FALSE,FALSE,Course Lock,98.4,,9.8,Calm,4,Android, 4.1.2,df005,07JDE5300200GN,,0CKJ2026ZD,0,76.335,12.3,9.5,0.9,1.1,0,0,df005,07JDE5300200GN,,0CKJ2026ZD,0,,Android, 4.1.2,,,,,,
34,6/29/2017,15:39.8,0m 29.3s,29.3,39.96117308,-106.2164952,0,0,0.3,8128,0,0.4,0,0,0,0,0,0,7,2.3,-100.4,259.6,Manual Takeoff,Other,Takeoff (RC Assisted),15,5,TRUE,,Phantom 4 Pro,TRUE,FALSE,,Smart,RC,TRUE,TRUE,FALSE,,,TRUE,,FALSE,FALSE,FALSE,FALSE,FALSE,FALSE,FALSE,FALSE,FALSE,FALSE,0,FPV,36.2,-17.3,9.8,9.8,FALSE,FALSE,TRUE,FALSE,FALSE,FALSE,,FALSE,Normal,,,1024,1024,1024,1024,1,FALSE,FALSE,FALSE,FALSE,FALSE,0,FALSE,FALSE,FALSE,FALSE,97,17.072,5854,6036,17.071,FALSE,4.269,4.271,4.269,4.269,0.008,FALSE,FALSE,63.458,102.1,102.1,102.1,0,0,0,0,0,0,2133.19,,Idle,0,30,FALSE,10,TRUE,0,Go Home,39.96117754,-106.2165129,5.2,8339.1,98.4,TRUE,1,1,FALSE,FALSE,FALSE,FALSE,0,TRUE,FALSE,FALSE,Course Lock,98.4,,9.8,Calm,4,Android, 4.1.2,df005,07JDE5300200GN,,0CKJ2026ZD,0,76.335,12.3,9.5,0.9,1.1,0,0,df005,07JDE5300200GN,,0CKJ2026ZD,0,,Android, 4.1.2,,,,,,
35,6/29/2017,15:40.1,0m 29.6s,29.6,39.96117297,-106.2164952,0,0,0.3,8128,0,0.4,0,0,0,0,0,0,7,2.3,-100.4,259.6,Manual Takeoff,Other,Takeoff (RC Assisted),15,5,TRUE,,Phantom 4 Pro,TRUE,FALSE,,Smart,RC,TRUE,TRUE,FALSE,,,TRUE,,FALSE,FALSE,FALSE,FALSE,FALSE,FALSE,FALSE,FALSE,FALSE,FALSE,0,FPV,35.8,-17.1,9.7,9.7,FALSE,FALSE,TRUE,FALSE,FALSE,FALSE,,FALSE,Normal,,,1024,1024,1024,1024,1,FALSE,FALSE,FALSE,FALSE,FALSE,0,FALSE,FALSE,FALSE,FALSE,97,17.072,5854,6036,17.071,FALSE,4.269,4.271,4.269,4.269,0.008,FALSE,FALSE,63.458,102.1,102.1,102.1,0,0,0,0,0,0,2133.19,,Idle,0,30,FALSE,10,TRUE,0,Go Home,39.96117754,-106.2165129,5.2,8339.1,98.4,TRUE,1,1,FALSE,FALSE,FALSE,FALSE,0,TRUE,FALSE,FALSE,Course Lock,98.4,,9.8,Calm,4,Android, 4.1.2,df005,07JDE5300200GN,,0CKJ2026ZD,0,76.335,12.3,9.5,0.9,1.1,0,0,df005,07JDE5300200GN,,0CKJ2026ZD,0,,Android, 4.1.2,,,,,,
36,6/29/2017,15:40.3,0m 29.8s,29.8,39.96117294,-106.2164952,0,0,0.3,8128,0,0.4,0,0,0,0,0,0,6.9,2.3,-100.4,259.6,Manual Takeoff,Other,Takeoff (RC Assisted),15,5,TRUE,,Phantom 4 Pro,TRUE,FALSE,,Smart,RC,TRUE,TRUE,FALSE,,,TRUE,,FALSE,FALSE,FALSE,FALSE,FALSE,FALSE,FALSE,FALSE,FALSE,FALSE,0,FPV,35.4,-17,9.5,9.5,FALSE,FALSE,TRUE,FALSE,FALSE,FALSE,,FALSE,Normal,,,1024,1024,1024,1024,1,FALSE,FALSE,FALSE,FALSE,FALSE,0,FALSE,FALSE,FALSE,FALSE,97,17.072,5854,6036,17.071,FALSE,4.269,4.271,4.269,4.269,0.008,FALSE,FALSE,63.458,102.1,102.1,102.1,0,0,0,0,0,0,2133.19,,Idle,0,30,FALSE,10,TRUE,0,Go Home,39.96117754,-106.2165129,5.2,8339.1,98.4,TRUE,1,1,FALSE,FALSE,FALSE,FALSE,0,TRUE,FALSE,FALSE,Course Lock,98.4,,9.8,Calm,4,Android, 4.1.2,df005,07JDE5300200GN,,0CKJ2026ZD,0,76.335,12.3,9.5,0.9,1.1,0,0,df005,07JDE5300200GN,,0CKJ2026ZD,0,,Android, 4.1.2,,,,,,
37,6/29/2017,15:40.7,0m 30.3s,30.3,39.96117295,-106.2164951,0,0,0.3,8128,0,0.4,0,0,0,0,0,0,7,2.4,-100.4,259.6,Manual Takeoff,Other,Takeoff (RC Assisted),15,5,TRUE,,Phantom 4 Pro,TRUE,FALSE,,Smart,RC,TRUE,TRUE,FALSE,,,TRUE,,FALSE,FALSE,FALSE,FALSE,FALSE,FALSE,FALSE,FALSE,FALSE,FALSE,0,FPV,35.1,-16.9,9.5,9.5,FALSE,FALSE,TRUE,FALSE,FALSE,FALSE,,FALSE,Normal,,,1024,1024,1061,1024,1,FALSE,FALSE,FALSE,FALSE,FALSE,0,FALSE,FALSE,FALSE,FALSE,97,17.072,5854,6036,17.071,FALSE,4.269,4.271,4.269,4.269,0.008,FALSE,FALSE,63.458,102.1,102.1,102.1,0,0,0,0,0,0,2133.19,,Idle,0,30,FALSE,10,TRUE,0,Go Home,39.96117754,-106.2165129,5.2,8339.1,98.4,TRUE,1,1,FALSE,FALSE,FALSE,FALSE,0,TRUE,FALSE,FALSE,Course Lock,98.4,,9.8,Calm,4,Android, 4.1.2,df005,07JDE5300200GN,,0CKJ2026ZD,0,76.335,12.3,9.5,0.9,1.1,0,0,df005,07JDE5300200GN,,0CKJ2026ZD,0,,Android, 4.1.2,,,,,,
38,6/29/2017,15:41.0,0m 30.6s,30.6,39.96117289,-106.2164951,0,0,0.3,8128,0,0.4,0,0,0,0,0,0,7,2.3,-100.4,259.6,Manual Takeoff,Other,Takeoff (RC Assisted),15,5,TRUE,,Phantom 4 Pro,TRUE,FALSE,,Smart,RC,TRUE,TRUE,FALSE,,,TRUE,,FALSE,FALSE,FALSE,FALSE,FALSE,FALSE,FALSE,FALSE,FALSE,FALSE,0,FPV,34.8,-16.7,9.4,9.4,FALSE,FALSE,TRUE,FALSE,FALSE,FALSE,,FALSE,Normal,,,1024,1024,1024,1024,1,FALSE,FALSE,FALSE,FALSE,FALSE,0,FALSE,FALSE,FALSE,FALSE,97,17.072,5854,6036,17.071,FALSE,4.269,4.271,4.269,4.269,0.008,FALSE,FALSE,63.458,102.1,102.1,102.1,0,0,0,0,0,0,2133.19,,Idle,0,30,FALSE,10,TRUE,0,Go Home,39.96117754,-106.2165129,5.3,8339.1,98.4,TRUE,1,1,FALSE,FALSE,FALSE,FALSE,0,TRUE,FALSE,FALSE,Course Lock,98.4,,9.8,Calm,4,Android, 4.1.2,df005,07JDE5300200GN,,0CKJ2026ZD,0,76.335,12.3,9.5,0.9,1.1,0,0,df005,07JDE5300200GN,,0CKJ2026ZD,0,,Android, 4.1.2,,,,,,
39,6/29/2017,15:41.4,0m 31.0s,31,39.96117286,-106.2164951,0,0,0.3,8128,0,0.4,0,0,0,0,0,0,7,2.4,-100.4,259.6,Manual Takeoff,Other,Takeoff (RC Assisted),15,5,TRUE,,Phantom 4 Pro,TRUE,FALSE,,Smart,RC,TRUE,TRUE,FALSE,,,TRUE,,FALSE,FALSE,FALSE,FALSE,FALSE,FALSE,FALSE,FALSE,FALSE,FALSE,0,FPV,34.4,-16.6,9.2,9.2,FALSE,FALSE,TRUE,FALSE,FALSE,FALSE,,FALSE,Normal,,,1024,1024,1024,1024,1,FALSE,FALSE,FALSE,FALSE,FALSE,0,FALSE,FALSE,FALSE,FALSE,97,17.072,5854,6036,17.062,FALSE,4.267,4.27,4.267,4.267,0.008,FALSE,FALSE,63.394,102.1,102.1,102.1,0,0,0,0,0,0,2092.55,,Idle,0,30,FALSE,10,TRUE,0,Go Home,39.96117754,-106.2165129,5.3,8339.1,98.4,TRUE,1,1,FALSE,FALSE,FALSE,FALSE,0,TRUE,FALSE,FALSE,Course Lock,98.4,,9.8,Calm,4,Android, 4.1.2,df005,07JDE5300200GN,,0CKJ2026ZD,0,76.335,12.3,9.5,0.9,1.1,0,0,df005,07JDE5300200GN,,0CKJ2026ZD,0,,Android, 4.1.2,,,,,,
40,6/29/2017,15:41.7,0m 31.3s,31.3,39.96117287,-106.216495,-0.3,0,0.3,8127,0,0.4,0,0,0,0,0,0,7,2.3,-100.4,259.6,Manual Takeoff,Other,Takeoff (RC Assisted),16,5,TRUE,,Phantom 4 Pro,TRUE,FALSE,,Smart,RC,TRUE,TRUE,FALSE,,,TRUE,,FALSE,FALSE,FALSE,FALSE,FALSE,FALSE,FALSE,FALSE,FALSE,FALSE,0,FPV,34.4,-16.6,9.2,9.2,FALSE,FALSE,TRUE,FALSE,FALSE,FALSE,,FALSE,Normal,,,1024,1024,1084,1024,1,FALSE,FALSE,FALSE,FALSE,FALSE,0,FALSE,FALSE,FALSE,FALSE,97,17.072,5854,6036,17.062,FALSE,4.267,4.27,4.267,4.267,0.008,FALSE,FALSE,63.394,102.1,102.1,102.1,0,0,0,0,0,0,2092.55,,Idle,0,30,FALSE,10,TRUE,0,Go Home,39.96117754,-106.2165129,5.3,8339.1,98.4,TRUE,1,1,FALSE,FALSE,FALSE,FALSE,0,TRUE,FALSE,FALSE,Course Lock,98.4,,9.8,Calm,4,Android, 4.1.2,df005,07JDE5300200GN,,0CKJ2026ZD,0,76.335,12.3,9.5,0.9,1.1,0,0,df005,07JDE5300200GN,,0CKJ2026ZD,0,,Android, 4.1.2,,,,,,
41,6/29/2017,15:42.2,0m 31.7s,31.7,39.9611729,-106.216495,-0.3,0,0.3,8127,0,0.4,0,0,0,0,0,0,6.9,2.4,-100.4,259.6,Manual Takeoff,Other,Takeoff (RC Assisted),15,5,TRUE,,Phantom 4 Pro,TRUE,FALSE,,Smart,RC,TRUE,TRUE,FALSE,,,TRUE,,FALSE,FALSE,FALSE,FALSE,FALSE,FALSE,FALSE,FALSE,FALSE,FALSE,0,FPV,34.4,-16.6,9.2,9.2,FALSE,FALSE,TRUE,FALSE,FALSE,FALSE,,FALSE,Normal,,,1024,1024,1024,1024,1,FALSE,FALSE,FALSE,FALSE,FALSE,0,FALSE,FALSE,FALSE,FALSE,97,17.072,5854,6036,17.062,FALSE,4.267,4.27,4.267,4.267,0.008,FALSE,FALSE,63.394,102.1,102.1,102.1,0,0,0,0,0,0,2092.55,,Idle,0,30,FALSE,10,TRUE,0,Go Home,39.96117754,-106.2165129,5.3,8339.1,98.4,TRUE,1,1,FALSE,FALSE,FALSE,FALSE,0,TRUE,FALSE,FALSE,Course Lock,98.4,,9.8,Calm,4,Android, 4.1.2,df005,07JDE5300200GN,,0CKJ2026ZD,0,76.335,12.3,9.5,0.9,1.1,0,0,df005,07JDE5300200GN,,0CKJ2026ZD,0,,Android, 4.1.2,,,,,,
42,6/29/2017,15:42.5,0m 32.0s,32,39.96117289,-106.216495,-0.3,0,0.3,8127,0,0.4,0,0,0,0,0,0,7,2.4,-100.4,259.6,Manual Takeoff,Other,Takeoff (RC Assisted),15,5,TRUE,,Phantom 4 Pro,TRUE,FALSE,,Smart,RC,TRUE,TRUE,FALSE,,,TRUE,,FALSE,FALSE,FALSE,FALSE,FALSE,FALSE,FALSE,FALSE,FALSE,FALSE,0,FPV,33.3,-16.2,8.9,8.9,FALSE,FALSE,TRUE,FALSE,FALSE,FALSE,,FALSE,Normal,,,1024,1024,1154,1024,1,FALSE,FALSE,FALSE,FALSE,FALSE,0,FALSE,FALSE,FALSE,FALSE,97,17.072,5854,6036,17.062,FALSE,4.267,4.27,4.267,4.267,0.008,FALSE,FALSE,63.394,102.1,102.1,102.1,0,0,0,0,0,0,2092.55,,Idle,0,30,FALSE,10,TRUE,0,Go Home,39.96117754,-106.2165129,5.3,8339.1,98.4,TRUE,1,1,FALSE,FALSE,FALSE,FALSE,0,TRUE,FALSE,FALSE,Course Lock,98.4,,9.8,Calm,4,Android, 4.1.2,df005,07JDE5300200GN,,0CKJ2026ZD,0,76.335,12.3,9.5,0.9,1.1,0,0,df005,07JDE5300200GN,,0CKJ2026ZD,0,,Android, 4.1.2,,,,,,
43,6/29/2017,15:42.9,0m 32.4s,32.4,39.9611728,-106.216495,-0.3,0,0.3,8127,0,0.4,0,0,0,0,0,0,6.9,2.4,-100.4,259.6,Manual Takeoff,Other,Takeoff (RC Assisted),15,5,TRUE,,Phantom 4 Pro,TRUE,FALSE,,Smart,RC,TRUE,TRUE,FALSE,,,TRUE,,FALSE,FALSE,FALSE,FALSE,FALSE,FALSE,FALSE,FALSE,FALSE,FALSE,0,FPV,32.4,-15.8,8.7,8.7,FALSE,FALSE,TRUE,FALSE,FALSE,FALSE,,FALSE,Normal,,,1024,1024,1116,1024,1,FALSE,FALSE,FALSE,FALSE,FALSE,0,FALSE,FALSE,FALSE,FALSE,97,17.072,5854,6036,17.062,FALSE,4.267,4.27,4.267,4.267,0.008,FALSE,FALSE,63.394,102.1,102.1,102.1,0,0,0,0,0,0,2092.55,,Idle,0,30,FALSE,10,TRUE,0,Go Home,39.96117754,-106.2165129,5.3,8339.1,98.4,TRUE,1,1,FALSE,FALSE,FALSE,FALSE,0,TRUE,FALSE,FALSE,Course Lock,98.4,,9.8,Calm,4,Android, 4.1.2,df005,07JDE5300200GN,,0CKJ2026ZD,0,76.335,12.3,9.5,0.9,1.1,0,0,df005,07JDE5300200GN,,0CKJ2026ZD,0,,Android, 4.1.2,,,,,,
44,6/29/2017,15:43.6,0m 33.1s,33.1,39.9611727,-106.2164948,-1.3,0,0.3,8126,0,0.4,0,0,0,0,0.2,0.2,6.4,2.6,-100.4,259.6,Manual Takeoff,Other,Takeoff (RC Assisted),15,5,TRUE,,Phantom 4 Pro,TRUE,FALSE,,Smart,RC,TRUE,TRUE,FALSE,,,TRUE,,FALSE,FALSE,FALSE,FALSE,FALSE,FALSE,FALSE,FALSE,FALSE,FALSE,0,FPV,32.4,-15.8,8.7,8.7,FALSE,FALSE,TRUE,FALSE,FALSE,FALSE,,FALSE,Normal,,,1024,1024,1115,1024,1,FALSE,FALSE,FALSE,FALSE,FALSE,0,FALSE,FALSE,FALSE,FALSE,97,17.072,5854,6036,17.062,FALSE,4.267,4.27,4.267,4.267,0.008,FALSE,FALSE,63.394,102.1,102.1,102.1,0,0,0,0,0,0,2092.55,,Idle,0,30,FALSE,10,TRUE,0,Go Home,39.96117754,-106.2165129,5.4,8339.1,98.4,TRUE,1,1,FALSE,FALSE,FALSE,FALSE,0,TRUE,FALSE,FALSE,Course Lock,98.4,,9.8,Calm,4,Android, 4.1.2,df005,07JDE5300200GN,,0CKJ2026ZD,0,76.335,12.3,9.5,0.9,1.1,0,0,df005,07JDE5300200GN,,0CKJ2026ZD,0,,Android, 4.1.2,,,,,,
45,6/29/2017,15:43.7,0m 33.2s,33.2,39.96117274,-106.2164946,-1.6,0,0.3,8126,0,0.4,0,0,0.2,0.2,0,0.2,2.9,2.4,-100.4,259.6,Manual Takeoff,Other,Takeoff (RC Assisted),15,5,TRUE,,Phantom 4 Pro,TRUE,FALSE,,Smart,RC,TRUE,TRUE,FALSE,,,TRUE,,FALSE,FALSE,FALSE,FALSE,FALSE,FALSE,FALSE,FALSE,FALSE,FALSE,0,FPV,25.7,-17.3,9.7,9.7,FALSE,FALSE,TRUE,FALSE,FALSE,FALSE,,FALSE,Normal,,,1024,1024,1109,1024,1,FALSE,FALSE,FALSE,FALSE,FALSE,0,FALSE,FALSE,FALSE,FALSE,97,17.072,5854,6036,17.062,FALSE,4.267,4.27,4.267,4.267,0.008,FALSE,FALSE,63.394,102.1,102.1,102.1,0,0,0,0,0,0,2092.55,,Idle,0,30,FALSE,10,TRUE,0,Go Home,39.96117754,-106.2165129,5.4,8339.1,98.4,TRUE,1,1,FALSE,FALSE,FALSE,FALSE,0,TRUE,FALSE,FALSE,Course Lock,98.4,,9.8,Calm,4,Android, 4.1.2,df005,07JDE5300200GN,,0CKJ2026ZD,0,76.335,12.3,9.5,0.9,1.1,0,0,df005,07JDE5300200GN,,0CKJ2026ZD,0,,Android, 4.1.2,,,,,,Braking now! Return sticks to midpoints first.
46,6/29/2017,15:44.3,0m 33.9s,33.9,39.96117296,-106.2164936,-2.3,0,0.7,8125,0.3,0.4,0,0,0,0.2,-0.2,0.2,-0.4,0.8,-100.5,259.5,P-GPS,Other,,16,5,TRUE,,Phantom 4 Pro,TRUE,FALSE,,Smart,RC,FALSE,TRUE,FALSE,,,TRUE,,FALSE,FALSE,FALSE,FALSE,FALSE,FALSE,FALSE,FALSE,FALSE,FALSE,0,FPV,25.9,-14.7,8.5,8.5,FALSE,FALSE,TRUE,FALSE,FALSE,FALSE,,FALSE,Normal,,,1024,1024,1120,1024,1,FALSE,FALSE,FALSE,FALSE,FALSE,0,FALSE,FALSE,FALSE,FALSE,97,17.072,5854,6036,17.062,FALSE,4.267,4.27,4.267,4.267,0.008,FALSE,FALSE,63.394,102.1,102.1,102.1,0,0,0,0,0,0,2092.55,,Idle,0,30,FALSE,10,TRUE,0,Go Home,39.96117754,-106.2165129,5.6,8339.1,98.4,TRUE,1,1,FALSE,FALSE,FALSE,FALSE,0,TRUE,FALSE,FALSE,Course Lock,98.4,,9.8,Calm,4,Android, 4.1.2,df005,07JDE5300200GN,,0CKJ2026ZD,0,76.335,12.3,9.5,0.9,1.1,0,0,df005,07JDE5300200GN,,0CKJ2026ZD,0,,Android, 4.1.2,,,,,,
47,6/29/2017,15:45.6,0m 35.1s,35.1,39.96117146,-106.216494,-1,0,2,8127,0.3,0.4,0,0,0,0.2,-0.9,0.2,-0.1,2.8,-100.7,259.3,P-GPS,Other,,16,5,TRUE,,Phantom 4 Pro,TRUE,FALSE,,Smart,RC,FALSE,TRUE,FALSE,,,TRUE,,FALSE,FALSE,FALSE,FALSE,FALSE,FALSE,FALSE,FALSE,FALSE,FALSE,0,FPV,23.9,-14.2,8.2,8.2,FALSE,FALSE,TRUE,FALSE,FALSE,FALSE,,FALSE,Normal,,,1024,1024,1160,1024,1,FALSE,FALSE,FALSE,FALSE,FALSE,0,FALSE,FALSE,FALSE,FALSE,97,17.072,5854,6036,17.062,FALSE,4.267,4.27,4.267,4.267,0.008,FALSE,FALSE,63.394,102.1,102.1,102.1,0,0,0,0,0,0,2092.55,,Idle,0,30,FALSE,10,TRUE,0,Go Home,39.96117754,-106.2165129,5.7,8339.1,98.4,TRUE,1,1,FALSE,FALSE,FALSE,FALSE,0,TRUE,FALSE,FALSE,Course Lock,98.4,,9.8,Calm,4,Android, 4.1.2,df005,07JDE5300200GN,,0CKJ2026ZD,0,76.335,12.3,9.5,0.9,1.1,0,0,df005,07JDE5300200GN,,0CKJ2026ZD,0,,Android, 4.1.2,,,,Downlink Restored (after 0m 1.2s).,,
48,6/29/2017,15:45.8,0m 35.3s,35.3,39.96117136,-106.216494,-0.7,0,2.3,8127,0.3,0.4,-0.2,0,0,0.2,-0.9,0.2,0.3,4,-100.7,259.3,P-GPS,Other,,16,5,TRUE,,Phantom 4 Pro,TRUE,FALSE,,Smart,RC,FALSE,TRUE,FALSE,,,TRUE,,FALSE,FALSE,FALSE,FALSE,FALSE,FALSE,FALSE,FALSE,FALSE,FALSE,0,FPV,24.1,-14.3,8,8,FALSE,FALSE,TRUE,FALSE,FALSE,FALSE,,FALSE,Normal,,,1024,1024,1163,1024,1,FALSE,FALSE,FALSE,FALSE,FALSE,0,FALSE,FALSE,FALSE,FALSE,97,16.775,5854,6036,17.062,FALSE,4.226,4.228,4.221,4.221,0.008,FALSE,FALSE,51.484,102.1,102.1,102.1,0,0,0,0,0,0,2092.55,,Idle,0,30,FALSE,10,TRUE,0,Go Home,39.96117754,-106.2165129,5.7,8339.1,98.4,TRUE,1,1,FALSE,FALSE,FALSE,FALSE,0,TRUE,FALSE,FALSE,Course Lock,98.4,,9.8,Calm,4,Android, 4.1.2,df005,07JDE5300200GN,,0CKJ2026ZD,0,76.335,12.3,9.5,0.9,1.1,0,0,df005,07JDE5300200GN,,0CKJ2026ZD,0,,Android, 4.1.2,,,,,,
49,6/29/2017,15:46.2,0m 35.8s,35.8,39.96117124,-106.2164943,0,0,3,8128,0,0.4,0,0,0,0.2,-0.9,0.2,0.9,2.9,-100.8,259.2,P-GPS,Other,,16,5,TRUE,,Phantom 4 Pro,TRUE,FALSE,,Smart,RC,FALSE,TRUE,FALSE,,,TRUE,,FALSE,FALSE,FALSE,FALSE,FALSE,FALSE,FALSE,FALSE,FALSE,FALSE,0,FPV,24.2,-14.1,7.8,7.8,FALSE,FALSE,TRUE,FALSE,FALSE,FALSE,,FALSE,Normal,,,1024,1024,1162,1024,1,FALSE,FALSE,FALSE,FALSE,FALSE,0,FALSE,FALSE,FALSE,FALSE,97,16.775,5854,6036,17.062,FALSE,4.226,4.228,4.221,4.221,0.008,FALSE,FALSE,51.484,102.1,102.1,102.1,0,0,0,0,0,0,2092.55,,Idle,0,30,FALSE,10,TRUE,0,Go Home,39.96117754,-106.2165129,5.7,8339.1,98.4,TRUE,1,1,FALSE,FALSE,FALSE,FALSE,0,TRUE,FALSE,FALSE,Course Lock,98.4,,9.8,Calm,4,Android, 4.1.2,df005,07JDE5300200GN,,0CKJ2026ZD,0,76.335,12.3,9.5,0.9,1.1,0,0,df005,07JDE5300200GN,,0CKJ2026ZD,0,,Android, 4.1.2,,,,,,
50,6/29/2017,15:46.6,0m 36.2s,36.2,39.96117098,-106.2164944,0.7,0.7,3.3,8128,0,0.4,0,0,0,0.2,-0.9,0.2,0.4,4.3,-100.3,259.7,P-GPS,Other,,16,5,TRUE,,Phantom 4 Pro,TRUE,FALSE,,Smart,RC,FALSE,TRUE,FALSE,,,TRUE,,FALSE,FALSE,FALSE,FALSE,FALSE,FALSE,FALSE,FALSE,FALSE,FALSE,0,FPV,22.8,-12.2,7.2,7.2,FALSE,FALSE,TRUE,FALSE,FALSE,FALSE,,FALSE,Normal,,,1024,1024,1170,1024,1,FALSE,FALSE,FALSE,FALSE,FALSE,0,FALSE,FALSE,FALSE,FALSE,97,16.775,5854,6036,17.062,FALSE,4.226,4.228,4.221,4.221,0.008,FALSE,FALSE,51.484,102.1,102.1,102.1,0,0,0,0,0,0,2092.55,,Idle,0,30,FALSE,10,TRUE,0,Go Home,39.96117754,-106.2165129,5.7,8339.1,98.4,TRUE,1,1,FALSE,FALSE,FALSE,FALSE,0,TRUE,FALSE,FALSE,Course Lock,98.4,,9.8,Calm,4,Android, 4.1.2,df005,07JDE5300200GN,,0CKJ2026ZD,0,76.335,12.3,9.5,0.9,1.1,0,0,df005,07JDE5300200GN,,0CKJ2026ZD,0,,Android, 4.1.2,,,,,,
51,6/29/2017,15:46.9,0m 36.5s,36.5,39.96117081,-106.2164943,1.3,1.3,3.9,8129,0,0.4,0,0,0,0.2,-1.1,0.2,-0.5,5.1,-100.4,259.6,P-GPS,Other,,16,5,TRUE,,Phantom 4 Pro,TRUE,FALSE,,Smart,RC,FALSE,TRUE,FALSE,,,TRUE,,FALSE,FALSE,FALSE,FALSE,FALSE,FALSE,FALSE,FALSE,FALSE,FALSE,0,FPV,22.2,-11.7,6.9,6.9,FALSE,FALSE,TRUE,FALSE,FALSE,FALSE,,FALSE,Normal,,,1024,1024,1188,1024,1,FALSE,FALSE,FALSE,FALSE,FALSE,0,FALSE,FALSE,FALSE,FALSE,97,16.775,5854,6036,17.062,FALSE,4.226,4.228,4.221,4.221,0.008,FALSE,FALSE,51.484,102.1,102.1,102.1,0,0,0,0,0,0,2092.55,,Idle,0,30,FALSE,10,TRUE,0,Go Home,39.96117754,-106.2165129,5.8,8339.1,98.4,TRUE,1,1,FALSE,FALSE,FALSE,FALSE,0,TRUE,FALSE,FALSE,Course Lock,98.4,,9.8,Calm,4,Android, 4.1.2,df005,07JDE5300200GN,,0CKJ2026ZD,0,76.335,12.3,9.5,0.9,1.1,0,0,df005,07JDE5300200GN,,0CKJ2026ZD,0,,Android, 4.1.2,,,,,,
52,6/29/2017,15:47.3,0m 36.9s,36.9,39.96117057,-106.2164941,2,2,4.6,8130,0,0.4,0,0,0,0.2,-1.1,0.2,0,5.3,-100.5,259.5,P-GPS,Other,,16,5,TRUE,,Phantom 4 Pro,TRUE,FALSE,,Smart,RC,FALSE,TRUE,FALSE,,,TRUE,,FALSE,FALSE,FALSE,FALSE,FALSE,FALSE,FALSE,FALSE,FALSE,FALSE,0,FPV,22.6,-11.6,6.6,6.6,FALSE,FALSE,TRUE,FALSE,FALSE,FALSE,,FALSE,Normal,,,1024,1024,1194,1024,1,FALSE,FALSE,FALSE,FALSE,FALSE,0,FALSE,FALSE,FALSE,FALSE,97,16.775,5854,6036,17.062,FALSE,4.226,4.228,4.221,4.221,0.008,FALSE,FALSE,51.484,102.1,102.1,102.1,0,0,0,0,0,0,2092.55,,Idle,0,30,FALSE,10,TRUE,0,Go Home,39.96117754,-106.2165129,5.8,8339.1,98.4,TRUE,1,1,FALSE,FALSE,FALSE,FALSE,0,TRUE,FALSE,FALSE,Course Lock,98.4,,9.8,Calm,4,Android, 4.1.2,df005,07JDE5300200GN,,0CKJ2026ZD,0,76.335,12.3,9.5,0.9,1.1,0,0,df005,07JDE5300200GN,,0CKJ2026ZD,0,,Android, 4.1.2,,,,,,
53,6/29/2017,15:47.7,0m 37.3s,37.3,39.96117029,-106.2164944,3,3,5.2,8131,0,0.4,-0.2,0,0,0.2,-1.3,0.2,0.7,6,-100.5,259.5,P-GPS,Other,,16,5,TRUE,,Phantom 4 Pro,TRUE,FALSE,,Smart,RC,FALSE,TRUE,FALSE,,,TRUE,,FALSE,FALSE,FALSE,FALSE,FALSE,FALSE,FALSE,FALSE,FALSE,FALSE,0,FPV,22.6,-10.7,6.3,6.3,FALSE,FALSE,TRUE,FALSE,FALSE,FALSE,,FALSE,Normal,,,1024,1024,1217,1024,1,FALSE,FALSE,FALSE,FALSE,FALSE,0,FALSE,FALSE,FALSE,FALSE,97,16.775,5854,6036,17.062,FALSE,4.226,4.228,4.221,4.221,0.008,FALSE,FALSE,51.484,102.1,102.1,102.1,0,0,0,0,0,0,2092.55,,Idle,0,30,FALSE,10,TRUE,0,Go Home,39.96117754,-106.2165129,5.8,8339.1,98.4,TRUE,1,1,FALSE,FALSE,FALSE,FALSE,0,TRUE,FALSE,FALSE,Course Lock,98.4,,9.8,Calm,4,Android, 4.1.2,df005,07JDE5300200GN,,0CKJ2026ZD,0,76.335,12.3,9.5,0.9,1.1,0,0,df005,07JDE5300200GN,,0CKJ2026ZD,0,,Android, 4.1.2,,,,,,
54,6/29/2017,15:47.9,0m 37.6s,37.6,39.96117006,-106.2164945,3.9,3.9,5.9,8132,0.3,0.4,0,0,0,0.2,-1.6,0.2,1.1,6.5,-100.4,259.6,P-GPS,Other,,16,5,TRUE,,Phantom 4 Pro,TRUE,FALSE,,Smart,RC,FALSE,TRUE,FALSE,,,TRUE,,FALSE,FALSE,FALSE,FALSE,FALSE,FALSE,FALSE,FALSE,FALSE,FALSE,0,FPV,22.6,-10.7,6.3,6.3,FALSE,FALSE,TRUE,FALSE,FALSE,FALSE,,FALSE,Normal,,,1024,1024,1168,1024,1,FALSE,FALSE,FALSE,FALSE,FALSE,0,FALSE,FALSE,FALSE,FALSE,97,16.775,5854,6036,17.062,FALSE,4.226,4.228,4.221,4.221,0.008,FALSE,FALSE,51.484,102.1,102.1,102.1,0,0,0,0,0,0,2092.55,,Idle,0,30,FALSE,10,TRUE,0,Go Home,39.96117754,-106.2165129,5.8,8339.1,98.4,TRUE,1,1,FALSE,FALSE,FALSE,FALSE,0,TRUE,FALSE,FALSE,Course Lock,98.4,,9.8,Calm,4,Android, 4.1.2,df005,07JDE5300200GN,,0CKJ2026ZD,0,76.335,12.3,9.5,0.9,1.1,0,0,df005,07JDE5300200GN,,0CKJ2026ZD,0,,Android, 4.1.2,,,,,,
55,6/29/2017,15:48.4,0m 37.9s,37.9,39.96116991,-106.2164947,4.6,4.6,6.6,8132,0,0.4,0,0,0,0.2,-1.1,0.2,0.8,6,-100.4,259.6,P-GPS,Other,,16,5,TRUE,,Phantom 4 Pro,TRUE,FALSE,,Smart,RC,FALSE,TRUE,FALSE,,,TRUE,,FALSE,FALSE,FALSE,FALSE,FALSE,FALSE,FALSE,FALSE,FALSE,FALSE,0,FPV,21.5,-10.4,6.4,6.4,FALSE,FALSE,TRUE,FALSE,FALSE,FALSE,,FALSE,Normal,,,1024,1024,1170,1024,1,FALSE,FALSE,FALSE,FALSE,FALSE,0,FALSE,FALSE,FALSE,FALSE,97,16.775,5854,6036,16.795,FALSE,4.226,4.228,4.221,4.221,0.008,FALSE,FALSE,51.484,102.1,102.1,102.1,0,0,0,0,0,0,4440.6,,Idle,0,30,FALSE,10,TRUE,0,Go Home,39.96117754,-106.2165129,5.8,8339.1,98.4,TRUE,1,1,FALSE,FALSE,FALSE,FALSE,0,TRUE,FALSE,FALSE,Course Lock,98.4,,9.8,Calm,4,Android, 4.1.2,df005,07JDE5300200GN,,0CKJ2026ZD,0,76.335,12.3,9.5,0.9,1.1,0,0,df005,07JDE5300200GN,,0CKJ2026ZD,0,,Android, 4.1.2,,,,,,
56,6/29/2017,15:49.2,0m 38.7s,38.7,39.96117001,-106.2164949,6.2,6.2,8.2,8134,0.3,0.4,0,0,0,0.2,-1.3,0.2,0.5,5,-100.5,259.5,P-GPS,Other,,16,5,TRUE,,Phantom 4 Pro,TRUE,FALSE,,Smart,RC,FALSE,TRUE,FALSE,,,TRUE,,FALSE,FALSE,FALSE,FALSE,FALSE,FALSE,FALSE,FALSE,FALSE,FALSE,0,FPV,21.5,-10.4,6.4,6.4,FALSE,FALSE,TRUE,FALSE,FALSE,FALSE,,FALSE,Normal,,,1024,1024,1287,1024,1,FALSE,FALSE,FALSE,FALSE,FALSE,0,FALSE,FALSE,FALSE,FALSE,97,16.775,5854,6036,16.795,FALSE,4.226,4.228,4.221,4.221,0.008,FALSE,FALSE,51.484,102.1,102.1,102.1,0,0,0,0,0,0,4440.6,,Idle,0,30,FALSE,10,TRUE,0,Go Home,39.96117754,-106.2165129,5.8,8339.1,98.4,TRUE,1,1,FALSE,FALSE,FALSE,FALSE,0,TRUE,FALSE,FALSE,Course Lock,98.4,,9.8,Calm,4,Android, 4.1.2,df005,07JDE5300200GN,,0CKJ2026ZD,0,76.335,12.3,9.5,0.9,1.1,0,0,df005,07JDE5300200GN,,0CKJ2026ZD,0,,Android, 4.1.2,,,,,,
57,6/29/2017,15:49.4,0m 39.0s,39,39.9611699,-106.216495,6.9,6.9,8.9,8135,0,0.4,0,0,0,0.2,-2.2,0.2,1.1,6.3,-100.5,259.5,P-GPS,Other,,16,5,TRUE,,Phantom 4 Pro,TRUE,FALSE,,Smart,RC,FALSE,TRUE,FALSE,,,TRUE,,FALSE,FALSE,FALSE,FALSE,FALSE,FALSE,FALSE,FALSE,FALSE,FALSE,0,FPV,21.6,-9.3,5.8,5.8,FALSE,FALSE,TRUE,FALSE,FALSE,FALSE,,FALSE,Normal,,,1024,1024,1222,1024,1,FALSE,FALSE,FALSE,FALSE,FALSE,0,FALSE,FALSE,FALSE,FALSE,97,16.775,5854,6036,16.795,FALSE,4.226,4.228,4.221,4.221,0.008,FALSE,FALSE,51.484,102.1,102.1,102.1,0,0,0,0,0,0,4440.6,,Idle,0,30,FALSE,10,TRUE,0,Go Home,39.96117754,-106.2165129,5.7,8339.1,98.4,TRUE,1,1,FALSE,FALSE,FALSE,FALSE,0,TRUE,FALSE,FALSE,Course Lock,98.4,,9.8,Calm,4,Android, 4.1.2,df005,07JDE5300200GN,,0CKJ2026ZD,0,76.335,12.3,9.5,0.9,1.1,0,0,df005,07JDE5300200GN,,0CKJ2026ZD,0,,Android, 4.1.2,,,,,,
58,6/29/2017,15:49.9,0m 39.4s,39.4,39.96116978,-106.2164953,8.2,8.2,9.8,8136,0,0.4,0,0,-0.2,0.2,-0.9,0.2,1.9,7,-100.4,259.6,P-GPS,Other,,16,5,TRUE,,Phantom 4 Pro,TRUE,FALSE,,Smart,RC,FALSE,TRUE,FALSE,,,TRUE,,FALSE,FALSE,FALSE,FALSE,FALSE,FALSE,FALSE,FALSE,FALSE,FALSE,0,FPV,21.7,-8.6,5.5,5.5,FALSE,FALSE,TRUE,FALSE,FALSE,FALSE,,FALSE,Normal,,,1024,1024,1024,1024,1,FALSE,FALSE,FALSE,FALSE,FALSE,0,FALSE,FALSE,FALSE,FALSE,97,16.775,5854,6036,16.795,FALSE,4.226,4.228,4.221,4.221,0.008,FALSE,FALSE,51.484,102.1,102.1,102.1,0,0,0,0,0,0,4440.6,,Idle,0,30,FALSE,10,TRUE,0,Go Home,39.96117754,-106.2165129,5.7,8339.1,98.4,TRUE,1,1,FALSE,FALSE,FALSE,FALSE,0,TRUE,FALSE,FALSE,Course Lock,98.4,,9.8,Calm,4,Android, 4.1.2,df005,07JDE5300200GN,,0CKJ2026ZD,0,76.335,12.3,9.5,0.9,1.1,0,0,df005,07JDE5300200GN,,0CKJ2026ZD,0,,Android, 4.1.2,,,,,,
59,6/29/2017,15:50.3,0m 39.8s,39.8,39.96116987,-106.2164961,8.5,8.5,10.2,8136,0.3,0.4,0,0,-0.2,0.2,0,0.2,3.5,4.7,-100.3,259.7,P-GPS,Other,,16,5,TRUE,,Phantom 4 Pro,TRUE,FALSE,,Smart,RC,FALSE,TRUE,FALSE,,,TRUE,,FALSE,FALSE,FALSE,FALSE,FALSE,FALSE,FALSE,FALSE,FALSE,FALSE,0,FPV,21.7,-8.6,5.5,5.5,FALSE,FALSE,TRUE,FALSE,FALSE,FALSE,,FALSE,Normal,,,1024,1024,1024,1024,1,FALSE,FALSE,FALSE,FALSE,FALSE,0,FALSE,FALSE,FALSE,FALSE,97,16.775,5854,6036,16.795,FALSE,4.226,4.228,4.221,4.221,0.008,FALSE,FALSE,51.484,102.1,102.1,102.1,0,0,0,0,0,0,4440.6,,Idle,0,30,FALSE,10,TRUE,0,Go Home,39.96117754,-106.2165129,5.5,8339.1,98.4,TRUE,1,1,FALSE,FALSE,FALSE,FALSE,0,TRUE,FALSE,FALSE,Course Lock,98.4,,9.8,Calm,4,Android, 4.1.2,df005,07JDE5300200GN,,0CKJ2026ZD,0,76.335,12.3,9.5,0.9,1.1,0,0,df005,07JDE5300200GN,,0CKJ2026ZD,0,,Android, 4.1.2,,,,,,
60,6/29/2017,15:50.6,0m 40.2s,40.2,39.96116975,-106.2164967,8.9,8.9,10.2,8137,0.4,0.4,0,0,-0.2,0.2,0,0.2,4.9,6.9,-100,260,P-GPS,Other,,16,5,TRUE,,Phantom 4 Pro,TRUE,FALSE,,Smart,RC,FALSE,TRUE,FALSE,,,TRUE,,FALSE,FALSE,FALSE,FALSE,FALSE,FALSE,FALSE,FALSE,FALSE,FALSE,0,FPV,21.6,-9.5,5.6,5.6,FALSE,FALSE,TRUE,FALSE,FALSE,FALSE,,FALSE,Normal,,,1024,1024,1024,1024,1,FALSE,FALSE,FALSE,FALSE,FALSE,0,FALSE,FALSE,FALSE,FALSE,97,16.775,5854,6036,16.795,FALSE,4.226,4.228,4.221,4.221,0.008,FALSE,FALSE,51.484,102.1,102.1,102.1,0,0,0,0,0,0,4440.6,,Idle,0,30,FALSE,10,TRUE,0,Go Home,39.96117754,-106.2165129,5.3,8339.1,98.4,TRUE,1,1,FALSE,FALSE,FALSE,FALSE,0,TRUE,FALSE,FALSE,Course Lock,98.4,,9.8,Calm,4,Android, 4.1.2,df005,07JDE5300200GN,,0CKJ2026ZD,0,76.335,12.3,9.5,0.9,1.1,0,0,df005,07JDE5300200GN,,0CKJ2026ZD,0,,Android, 4.1.2,,,,,,
61,6/29/2017,15:51.3,0m 40.9s,40.9,39.96116931,-106.2164963,9.2,9.2,9.8,8137,0,0.4,-0.2,0,0.2,0.2,0,0.2,3.1,9.7,-100.1,259.9,P-GPS,Other,,16,5,TRUE,,Phantom 4 Pro,TRUE,FALSE,,Smart,RC,FALSE,TRUE,FALSE,,,TRUE,,FALSE,FALSE,FALSE,FALSE,FALSE,FALSE,FALSE,FALSE,FALSE,FALSE,0,FPV,18.9,-6.3,4.8,4.8,FALSE,FALSE,TRUE,FALSE,FALSE,FALSE,,FALSE,Normal,,,1024,1024,1024,1024,1,FALSE,FALSE,FALSE,FALSE,FALSE,0,FALSE,FALSE,FALSE,FALSE,97,16.775,5854,6036,16.795,FALSE,4.226,4.228,4.221,4.221,0.008,FALSE,FALSE,51.484,102.1,102.1,102.1,0,0,0,0,0,0,4440.6,,Idle,0,30,FALSE,10,TRUE,0,Go Home,39.96117754,-106.2165129,5.5,8339.1,98.4,TRUE,1,1,FALSE,FALSE,FALSE,FALSE,0,TRUE,FALSE,FALSE,Course Lock,98.4,,9.8,Calm,4,Android, 4.1.2,df005,07JDE5300200GN,,0CKJ2026ZD,0,76.335,12.3,9.5,0.9,1.1,0,0,df005,07JDE5300200GN,,0CKJ2026ZD,0,,Android, 4.1.2,,,,,,
62,6/29/2017,15:51.7,0m 41.4s,41.4,39.96116895,-106.2164955,9.2,9.2,9.8,8137,0.3,0.4,0,0,0.2,0.2,0.2,0.2,1.7,9.4,-100.2,259.8,P-GPS,Other,,16,5,TRUE,,Phantom 4 Pro,TRUE,FALSE,,Smart,RC,FALSE,TRUE,FALSE,,,TRUE,,FALSE,FALSE,FALSE,FALSE,FALSE,FALSE,FALSE,FALSE,FALSE,FALSE,0,FPV,18.9,-6.3,4.8,4.8,FALSE,FALSE,TRUE,FALSE,FALSE,FALSE,,FALSE,Normal,,,1024,1024,1024,1024,1,FALSE,FALSE,FALSE,FALSE,FALSE,0,FALSE,FALSE,FALSE,FALSE,97,16.748,5854,6036,16.795,FALSE,4.196,4.199,4.194,4.197,0.008,FALSE,FALSE,51.816,103.9,102.1,103.9,0,0,0,0,0,0,4440.6,,Idle,0,30,FALSE,10,TRUE,0,Go Home,39.96117754,-106.2165129,5.8,8339.1,98.4,TRUE,1,1,FALSE,FALSE,FALSE,FALSE,0,TRUE,FALSE,FALSE,Course Lock,98.4,,9.8,Calm,4,Android, 4.1.2,df005,07JDE5300200GN,,0CKJ2026ZD,0,76.335,12.3,9.5,0.9,1.1,0,0,df005,07JDE5300200GN,,0CKJ2026ZD,0,,Android, 4.1.2,,,,,,
63,6/29/2017,15:52.6,0m 42.3s,42.3,39.9611693,-106.2164952,9.2,9.2,9.5,8137,0,0.6,0,0,0,0.2,0,0.2,2.3,7.8,-100.1,259.9,P-GPS,Other,,16,5,TRUE,,Phantom 4 Pro,TRUE,FALSE,,Smart,RC,FALSE,TRUE,FALSE,,,TRUE,,FALSE,FALSE,FALSE,FALSE,FALSE,FALSE,FALSE,FALSE,FALSE,FALSE,0,FPV,18.6,-6.9,5.1,5.1,FALSE,FALSE,TRUE,FALSE,FALSE,FALSE,,FALSE,Normal,,,1024,1024,1024,1024,1,FALSE,FALSE,FALSE,FALSE,FALSE,0,FALSE,FALSE,FALSE,FALSE,97,16.748,5854,6036,16.795,FALSE,4.196,4.199,4.194,4.197,0.008,FALSE,FALSE,51.816,103.9,102.1,103.9,0,0,0,0,0,0,4440.6,,Idle,0,30,FALSE,10,TRUE,0,Go Home,39.96117754,-106.2165129,5.8,8339.1,98.4,TRUE,1,1,FALSE,FALSE,FALSE,FALSE,0,TRUE,FALSE,FALSE,Course Lock,98.4,,9.8,Calm,4,Android, 4.1.2,df005,07JDE5300200GN,,0CKJ2026ZD,0,76.335,12.3,9.5,0.9,1.1,0,0,df005,07JDE5300200GN,,0CKJ2026ZD,0,,Android, 4.1.2,,,,,,
64,6/29/2017,15:53.4,0m 43.0s,43,39.9611698,-106.2164945,9.5,9.5,9.2,8137,0.3,0.6,0,0,0,0.2,0.2,0.2,0.2,8.9,-100.4,259.6,P-GPS,Other,,16,5,TRUE,,Phantom 4 Pro,TRUE,FALSE,,Smart,RC,FALSE,TRUE,FALSE,,,TRUE,,FALSE,FALSE,FALSE,FALSE,FALSE,FALSE,FALSE,FALSE,FALSE,FALSE,0,FPV,17,-5.9,4.6,4.6,FALSE,FALSE,TRUE,FALSE,FALSE,FALSE,,FALSE,Normal,,,1024,1024,1024,1024,1,FALSE,FALSE,FALSE,FALSE,FALSE,0,FALSE,FALSE,FALSE,FALSE,97,16.748,5854,6036,16.795,FALSE,4.196,4.199,4.194,4.197,0.008,FALSE,FALSE,51.816,103.9,102.1,103.9,0,0,0,0,0,0,4440.6,,Idle,0,30,FALSE,10,TRUE,0,Go Home,39.96117754,-106.2165129,5.9,8339.1,98.4,TRUE,1,1,FALSE,FALSE,FALSE,FALSE,0,TRUE,FALSE,FALSE,Course Lock,98.4,,9.8,Calm,4,Android, 4.1.2,df005,07JDE5300200GN,,0CKJ2026ZD,0,76.335,12.3,9.5,0.9,1.1,0,0,df005,07JDE5300200GN,,0CKJ2026ZD,0,,Android, 4.1.2,,,,,,
65,6/29/2017,15:53.7,0m 43.4s,43.4,39.96116993,-106.2164941,9.5,9.5,9.2,8137,0,0.6,0,0,0,0.2,0,0.2,0.4,8.9,-100.3,259.7,P-GPS,Other,,16,5,TRUE,,Phantom 4 Pro,TRUE,FALSE,,Smart,RC,FALSE,TRUE,FALSE,,,TRUE,,FALSE,FALSE,FALSE,FALSE,FALSE,FALSE,FALSE,FALSE,FALSE,FALSE,0,FPV,17.3,-6.4,5,5,FALSE,FALSE,TRUE,FALSE,FALSE,FALSE,,FALSE,Normal,,,1024,1024,1024,1024,1,FALSE,FALSE,FALSE,FALSE,FALSE,0,FALSE,FALSE,FALSE,FALSE,97,16.748,5854,6036,16.795,FALSE,4.196,4.199,4.194,4.197,0.008,FALSE,FALSE,51.816,103.9,102.1,103.9,0,0,0,0,0,0,4440.6,,Idle,0,30,FALSE,10,TRUE,0,Go Home,39.96117754,-106.2165129,5.9,8339.1,98.4,TRUE,1,1,FALSE,FALSE,FALSE,FALSE,0,TRUE,FALSE,FALSE,Course Lock,98.4,,9.8,Calm,4,Android, 4.1.2,df005,07JDE5300200GN,,0CKJ2026ZD,0,76.335,12.3,9.5,0.9,1.1,0,0,df005,07JDE5300200GN,,0CKJ2026ZD,0,,Android, 4.1.2,,,,,,
66,6/29/2017,15:53.9,0m 43.5s,43.5,39.96116997,-106.216494,9.5,9.5,9.2,8137,0,0.6,0,0,0,0.2,0,0.2,0.5,8.6,-100.3,259.7,P-GPS,Other,,16,5,TRUE,,Phantom 4 Pro,TRUE,FALSE,,Smart,RC,FALSE,TRUE,FALSE,,,TRUE,,FALSE,FALSE,FALSE,FALSE,FALSE,FALSE,FALSE,FALSE,FALSE,FALSE,0,FPV,17.3,-6.4,5,5,FALSE,FALSE,TRUE,FALSE,FALSE,FALSE,,FALSE,Normal,,,1024,1024,1024,1024,1,FALSE,FALSE,FALSE,FALSE,FALSE,0,FALSE,FALSE,FALSE,FALSE,97,16.748,5854,6036,16.795,FALSE,4.196,4.199,4.194,4.197,0.008,FALSE,FALSE,51.816,103.9,102.1,103.9,0,0,0,0,0,0,4440.6,,Idle,0,30,FALSE,10,TRUE,0,Go Home,39.96117754,-106.2165129,6,8339.1,98.4,TRUE,1,1,FALSE,FALSE,FALSE,FALSE,0,TRUE,FALSE,FALSE,Course Lock,98.4,,9.8,Calm,4,Android, 4.1.2,df005,07JDE5300200GN,,0CKJ2026ZD,0,76.335,12.3,9.5,0.9,1.1,0,0,df005,07JDE5300200GN,,0CKJ2026ZD,0,,Android, 4.1.2,,,,,,
