CUSTOM.date [local], CUSTOM.updateTime [local], OSD.flyTime, OSD.flyTime [s], OSD.latitude, OSD.longitude, OSD.height [ft], OSD.heightMax [ft], OSD.vpsHeight [ft], OSD.altitude [ft], OSD.hSpeed [MPH], OSD.hSpeedMax [MPH], OSD.xSpeed [MPH], OSD.xSpeedMax [MPH], OSD.ySpeed [MPH], OSD.ySpeedMax [MPH], OSD.zSpeed [MPH], OSD.zSpeedMax [MPH], OSD.pitch, OSD.roll, OSD.yaw, OSD.yaw [360], OSD.flycState, OSD.flycCommand, OSD.flightAction, OSD.gpsNum, OSD.gpsLevel, OSD.isGPSUsed, OSD.nonGPSCause, OSD.droneType, OSD.isSwaveWork, OSD.waveError, OSD.goHomeStatus, OSD.batteryType, OSD.ctrlDevice, OSD.isOnGround, OSD.isMotorOn, OSD.isMotorBlocked, OSD.motorStartFailedCause, OSD.motorFailReason, OSD.isImuPreheated, OSD.imuInitFailReason, OSD.isAcceletorOverRange, OSD.isBarometerDeadInAir, OSD.isCompassError, OSD.isGoHomeHeightModified, OSD.canIOCWork, OSD.isNotEnoughForce, OSD.isOutOfLimit, OSD.isPropellerCatapult, OSD.isVibrating, OSD.isVisionUsed, OSD.voltageWarning, GIMBAL.mode, GIMBAL.pitch, GIMBAL.roll, GIMBAL.yaw, GIMBAL.yaw [360], GIMBAL.isPitchAtLimit, GIMBAL.isRollAtLimit, GIMBAL.isYawAtLimit, GIMBAL.isStuck, CAMERA.isPhoto, CAMERA.isVideo, CAMERA.filename, CAMERA.sdCardIsInserted, CAMERA.sdCardState, RC.downlinkSignal, RC.uplinkSignal, RC.aileron, RC.elevator, RC.throttle, RC.rudder, RC.mode, RC.goHomeDepressed, RC.recordDepressed, RC.shutterDepressed, RC.playbackDepressed, RC.wheelDepressed, RC.wheelOffset, RC.custom1Depressed, RC.custom2Depressed, RC.custom3Depressed, RC.custom4Depressed, BATTERY.chargeLevel, BATTERY.currentPV [V], BATTERY.currentCapacity [mAh], BATTERY.fullCapacity [mAh], BATTERY.voltage [V], BATTERY.isCellVoltageEstimated, BATTERY.cellVoltage1 [V], BATTERY.cellVoltage2 [V], BATTERY.cellVoltage3 [V], BATTERY.cellVoltage4 [V], BATTERY.cellVoltage5 [V], BATTERY.cellVoltage6 [V], BATTERY.maxCellVoltageDeviation, BATTERY.isCellVoltageDeviationHigh, BATTERY.isVoltageLow, BATTERY.current [A], BATTERY.temperature [F], BATTERY.minTemperature [F], BATTERY.maxTemperature [F], BATTERY.usefulTime [s], BATTERY.goHomeTime [s], BATTERY.landTime [s], BATTERY.goHomeBattery, BATTERY.landBattery, BATTERY.safeFlyRadius, BATTERY.volumeConsume, BATTERY.status, BATTERY.goHomeStatus, BATTERY.goHomeCountdown, BATTERY.lowWarning, BATTERY.lowWarningGoHome, BATTERY.seriousLowWarning, BATTERY.seriousLowWarningLanding, BATTERY.timesCharged, MC.failSafeAction, HOME.latitude, HOME.longitude, HOME.distance [ft], HOME.height [ft], HOME.heightLimit [ft], HOME.isHomeRecord, HOME.goHomeMode, HOME.aircraftHeadDirection, HOME.isDynamicHomePointEnabled, HOME.isReachedLimitDistance, HOME.isReachedLimitHeight, HOME.isCompassCeleing, HOME.compassCeleStatus, HOME.isMultipleFlightModeEnabled, HOME.isBeginnerMode, HOME.isIOCEnabled, HOME.iocMode, HOME.goHomeHeight [ft], HOME.courseLockAngle, HOME.forceLandingHeight [ft], HOME.wind, HOME.dataRecorderFileIndex, RECOVER.appType, RECOVER.appVersion, RECOVER.aircraftName, RECOVER.aircraftSerial, RECOVER.cameraSerial, RECOVER.rcSerial, RECOVER.batterySerial, DETAILS.totalTime [s], DETAILS.totalDistance [ft], DETAILS.maxHeight [ft], DETAILS.maxHorizontalSpeed [MPH], DETAILS.maxVerticalSpeed [MPH], DETAILS.photoNum, DETAILS.videoTime [s], DETAILS.aircraftName, DETAILS.aircraftSerial, DETAILS.cameraSerial, DETAILS.rcSerial, DETAILS.batterySerial, DETAILS.appName, DETAILS.appType, DETAILS.appVersion, APPGPS.latitude, APPGPS.longitude, APPGPS.accuracy, APP.message, APP.tip, APP.warning
6/15/2018,17:17:46,0m 1.0s,1,0,0,0,0,20.7,0,0,0,0,0,0,0,0,0,44,7.2,23.4,23.4,P-GPS,Unpack Mode,Takeoff (RC Assisted),0,0,FALSE,,Inspire 1,FALSE,FALSE,,Smart,RC,FALSE,TRUE,FALSE,,Other (209),TRUE,,FALSE,FALSE,FALSE,FALSE,TRUE,FALSE,FALSE,FALSE,FALSE,TRUE,0,Follow Yaw,29.9,0,20.4,20.4,FALSE,FALSE,FALSE,FALSE,FALSE,FALSE,,TRUE,Normal,,,1024,1024,1024,1024,2,FALSE,FALSE,FALSE,FALSE,FALSE,0,FALSE,FALSE,FALSE,FALSE,95,25.557,4003,4214,25.477,FALSE,4.255,4.256,4.258,4.264,4.266,4.258,0.011,FALSE,FALSE,64.738,73.5,73.5,73.5,0,0,0,15,10,0,0,,Idle,0,30,FALSE,10,TRUE,9,Go Home,,,,5733.9,,FALSE,1,1,FALSE,FALSE,FALSE,FALSE,0,TRUE,FALSE,FALSE,Course Lock,65.6,36.3,,Calm,5,Android, 3.1.38,RGP Craft,410059536,,03LD015147,6781073611,39.987,0,0.7,0,0.2,1,0,RGP Craft,410059536,,03LD015147,6781073611,,Android, 3.1.38,,,,Data Recorder File Index is 5.,,
6/15/2018,17:17:46,0m 1.1s,1.1,0,0,0,0,20.7,0,0,0,0,0,0,0,0,0,43.4,7.1,23.4,23.4,P-GPS,Unpack Mode,Takeoff (RC Assisted),0,0,FALSE,,Inspire 1,FALSE,FALSE,,Smart,RC,FALSE,TRUE,FALSE,,Other (209),TRUE,,FALSE,FALSE,FALSE,FALSE,TRUE,FALSE,FALSE,FALSE,FALSE,TRUE,0,Follow Yaw,29.9,0,20.1,20.1,FALSE,FALSE,FALSE,FALSE,FALSE,FALSE,,TRUE,Normal,,,1024,1024,1024,1024,2,FALSE,FALSE,FALSE,FALSE,FALSE,0,FALSE,FALSE,FALSE,FALSE,95,25.557,4003,4214,25.477,FALSE,4.255,4.256,4.258,4.264,4.266,4.258,0.011,FALSE,FALSE,64.738,73.5,73.5,73.5,0,0,0,15,10,0,0,,Idle,0,30,FALSE,10,TRUE,9,Go Home,,,,5733.9,,FALSE,1,1,FALSE,FALSE,FALSE,FALSE,0,TRUE,FALSE,FALSE,Course Lock,65.6,36.3,,Calm,5,Android, 3.1.38,RGP Craft,410059536,,03LD015147,6781073611,39.987,0,0.7,0,0.2,1,0,RGP Craft,410059536,,03LD015147,6781073611,,Android, 3.1.38,,,,,,
6/15/2018,17:17:46,0m 1.2s,1.2,0,0,0,0,21,0,0,0,0,0,0,0,0,0,42.8,7,23.4,23.4,P-GPS,Unpack Mode,Takeoff (RC Assisted),0,0,FALSE,,Inspire 1,FALSE,FALSE,,Smart,RC,FALSE,TRUE,FALSE,,Other (209),TRUE,,FALSE,FALSE,FALSE,FALSE,TRUE,FALSE,FALSE,FALSE,FALSE,TRUE,0,Follow Yaw,29.9,0,19.9,19.9,FALSE,FALSE,FALSE,FALSE,FALSE,FALSE,,TRUE,Normal,,,1024,1024,1024,1024,2,FALSE,FALSE,FALSE,FALSE,FALSE,0,FALSE,FALSE,FALSE,FALSE,95,25.557,4003,4214,25.477,FALSE,4.255,4.256,4.258,4.264,4.266,4.258,0.011,FALSE,FALSE,64.738,73.5,73.5,73.5,0,0,0,15,10,0,0,,Idle,0,30,FALSE,10,TRUE,9,Go Home,,,,5733.9,,FALSE,1,1,FALSE,FALSE,FALSE,FALSE,0,TRUE,FALSE,FALSE,Course Lock,65.6,36.3,,Calm,5,Android, 3.1.38,RGP Craft,410059536,,03LD015147,6781073611,39.987,0,0.7,0,0.2,1,0,RGP Craft,410059536,,03LD015147,6781073611,,Android, 3.1.38,,,,,,
6/15/2018,17:17:46,0m 1.3s,1.3,0,0,0,0,21,0,0,0,0,0,0,0,0,0,42.1,7,23.2,23.2,P-GPS,Unpack Mode,Takeoff (RC Assisted),0,0,FALSE,,Inspire 1,FALSE,FALSE,,Smart,RC,FALSE,TRUE,FALSE,,Other (209),TRUE,,FALSE,FALSE,FALSE,FALSE,TRUE,FALSE,FALSE,FALSE,FALSE,TRUE,0,Follow Yaw,29.9,0,19.9,19.9,FALSE,FALSE,FALSE,FALSE,FALSE,FALSE,,TRUE,Normal,,,1024,1024,1024,1024,2,FALSE,FALSE,FALSE,FALSE,FALSE,0,FALSE,FALSE,FALSE,FALSE,95,25.557,4003,4214,25.477,FALSE,4.255,4.256,4.258,4.264,4.266,4.258,0.011,FALSE,FALSE,64.738,73.5,73.5,73.5,0,0,0,15,10,0,0,,Idle,0,30,FALSE,10,TRUE,9,Go Home,,,,5733.9,,FALSE,1,1,FALSE,FALSE,FALSE,FALSE,0,TRUE,FALSE,FALSE,Course Lock,65.6,36.3,,Calm,5,Android, 3.1.38,RGP Craft,410059536,,03LD015147,6781073611,39.987,0,0.7,0,0.2,1,0,RGP Craft,410059536,,03LD015147,6781073611,,Android, 3.1.38,,,,,,
6/15/2018,17:17:46,0m 1.4s,1.4,0,0,0,0,21,0,0,0,0,0,0,0,0,0,41.8,6.9,23.1,23.1,P-GPS,Unpack Mode,Takeoff (RC Assisted),0,0,FALSE,,Inspire 1,FALSE,FALSE,,Smart,RC,FALSE,TRUE,FALSE,,Other (8),TRUE,,FALSE,FALSE,FALSE,FALSE,TRUE,FALSE,FALSE,FALSE,FALSE,TRUE,0,Follow Yaw,29.9,0,19.6,19.6,FALSE,FALSE,FALSE,FALSE,FALSE,FALSE,,TRUE,Normal,,,1024,1024,1024,1024,2,FALSE,FALSE,FALSE,FALSE,FALSE,0,FALSE,FALSE,FALSE,FALSE,95,25.557,4003,4214,25.477,FALSE,4.255,4.256,4.258,4.264,4.266,4.258,0.011,FALSE,FALSE,64.738,73.5,73.5,73.5,0,0,0,15,10,0,0,,Idle,0,30,FALSE,10,TRUE,9,Go Home,,,,5733.9,,FALSE,1,1,FALSE,FALSE,FALSE,FALSE,0,TRUE,FALSE,FALSE,Course Lock,65.6,36.3,,Calm,5,Android, 3.1.38,RGP Craft,410059536,,03LD015147,6781073611,39.987,0,0.7,0,0.2,1,0,RGP Craft,410059536,,03LD015147,6781073611,,Android, 3.1.38,,,,,,
6/15/2018,17:17:46,0m 1.6s,1.6,0,0,0,0,21.3,0,0,0,0,0,0,0,0,0,42,6.9,23.1,23.1,P-GPS,Unpack Mode,Takeoff (RC Assisted),0,0,FALSE,,Inspire 1,FALSE,FALSE,,Smart,RC,FALSE,TRUE,FALSE,,Other (8),TRUE,,FALSE,FALSE,FALSE,FALSE,TRUE,FALSE,FALSE,FALSE,FALSE,TRUE,0,Follow Yaw,29.9,0,19.4,19.4,FALSE,FALSE,FALSE,FALSE,FALSE,FALSE,,TRUE,Normal,,,1024,1024,1024,1024,2,FALSE,FALSE,FALSE,FALSE,FALSE,0,FALSE,FALSE,FALSE,FALSE,95,25.557,4003,4214,25.477,FALSE,4.255,4.256,4.258,4.264,4.266,4.258,0.011,FALSE,FALSE,64.738,73.5,73.5,73.5,0,0,0,15,10,0,0,,Idle,0,30,FALSE,10,TRUE,9,Go Home,,,,5733.9,,FALSE,1,1,FALSE,FALSE,FALSE,FALSE,0,TRUE,FALSE,FALSE,Course Lock,65.6,36.3,,Calm,5,Android, 3.1.38,RGP Craft,410059536,,03LD015147,6781073611,39.987,0,0.7,0,0.2,1,0,RGP Craft,410059536,,03LD015147,6781073611,,Android, 3.1.38,,,,,,
6/15/2018,17:17:46,0m 1.7s,1.7,0,0,0,0,21.3,0,0,0,0,0,0,0,0,0,42,6.9,23.1,23.1,P-GPS,Unpack Mode,Takeoff (RC Assisted),0,0,FALSE,,Inspire 1,FALSE,FALSE,,Smart,RC,FALSE,TRUE,FALSE,,Other (8),TRUE,,FALSE,FALSE,FALSE,FALSE,TRUE,FALSE,FALSE,FALSE,FALSE,TRUE,0,Follow Yaw,29.9,0,19.3,19.3,FALSE,FALSE,FALSE,FALSE,FALSE,FALSE,,TRUE,Normal,,,1024,1024,1024,1024,2,FALSE,FALSE,FALSE,FALSE,FALSE,0,FALSE,FALSE,FALSE,FALSE,95,25.557,4003,4214,25.477,FALSE,4.255,4.256,4.258,4.264,4.266,4.258,0.011,FALSE,FALSE,64.738,73.5,73.5,73.5,0,0,0,15,10,0,0,,Idle,0,30,FALSE,10,TRUE,9,Go Home,,,,5733.9,,FALSE,1,1,FALSE,FALSE,FALSE,FALSE,0,TRUE,FALSE,FALSE,Course Lock,65.6,36.3,,Calm,5,Android, 3.1.38,RGP Craft,410059536,,03LD015147,6781073611,39.987,0,0.7,0,0.2,1,0,RGP Craft,410059536,,03LD015147,6781073611,,Android, 3.1.38,,,,,,
6/15/2018,17:17:46,0m 1.8s,1.8,0,0,0,0,21.3,0,0,0,0,0,0,0,0,0,41.9,6.9,23,23,P-GPS,Unpack Mode,Takeoff (RC Assisted),0,0,FALSE,,Inspire 1,FALSE,FALSE,,Smart,RC,FALSE,TRUE,FALSE,,Other (8),TRUE,,FALSE,FALSE,FALSE,FALSE,TRUE,FALSE,FALSE,FALSE,FALSE,TRUE,0,Follow Yaw,29.9,0,19.3,19.3,FALSE,FALSE,FALSE,FALSE,FALSE,FALSE,,TRUE,Normal,,,1024,1024,1024,1024,2,FALSE,FALSE,FALSE,FALSE,FALSE,0,FALSE,FALSE,FALSE,FALSE,95,25.557,4003,4214,25.477,FALSE,4.255,4.256,4.258,4.264,4.266,4.258,0.011,FALSE,FALSE,64.738,73.5,73.5,73.5,0,0,0,15,10,0,0,,Idle,0,30,FALSE,10,TRUE,9,Go Home,,,,5733.9,,FALSE,1,1,FALSE,FALSE,FALSE,FALSE,0,TRUE,FALSE,FALSE,Course Lock,65.6,36.3,,Calm,5,Android, 3.1.38,RGP Craft,410059536,,03LD015147,6781073611,39.987,0,0.7,0,0.2,1,0,RGP Craft,410059536,,03LD015147,6781073611,,Android, 3.1.38,,,,,,
6/15/2018,17:17:47,0m 2.1s,2.1,0,0,0,0,21.7,0,0,0,0,0,0,0,0,0,41.6,6.9,23,23,Manual Takeoff,Unpack Mode,Takeoff (RC Assisted),0,0,FALSE,,Inspire 1,FALSE,FALSE,,Smart,RC,FALSE,TRUE,FALSE,,Other (8),TRUE,,FALSE,FALSE,FALSE,FALSE,TRUE,FALSE,FALSE,FALSE,FALSE,TRUE,0,Follow Yaw,29.9,0,19.4,19.4,FALSE,FALSE,FALSE,FALSE,FALSE,FALSE,,TRUE,Normal,,,1024,1024,1024,1024,2,FALSE,FALSE,FALSE,FALSE,FALSE,0,FALSE,FALSE,FALSE,FALSE,95,25.557,4003,4214,25.477,FALSE,4.255,4.256,4.258,4.264,4.266,4.258,0.011,FALSE,FALSE,64.738,73.5,73.5,73.5,0,0,0,15,10,0,0,,Idle,0,30,FALSE,10,TRUE,9,Go Home,,,,5733.9,,FALSE,1,1,FALSE,FALSE,FALSE,FALSE,0,TRUE,FALSE,FALSE,Course Lock,65.6,36.3,,Calm,5,Android, 3.1.38,RGP Craft,410059536,,03LD015147,6781073611,39.987,0,0.7,0,0.2,1,0,RGP Craft,410059536,,03LD015147,6781073611,,Android, 3.1.38,,,,RTH Altitude: 65FT.,,
6/15/2018,17:17:47,0m 2.2s,2.2,0,0,0,0,22,0,0,0,0,0,0,0,0,0,41.5,6.9,23,23,Manual Takeoff,Unpack Mode,Takeoff (RC Assisted),0,0,FALSE,,Inspire 1,FALSE,FALSE,,Smart,RC,FALSE,TRUE,FALSE,,Other (8),TRUE,,FALSE,FALSE,FALSE,FALSE,TRUE,FALSE,FALSE,FALSE,FALSE,TRUE,0,Follow Yaw,29.9,0,19.4,19.4,FALSE,FALSE,FALSE,FALSE,FALSE,FALSE,,TRUE,Normal,,,1024,1024,1024,1024,2,FALSE,FALSE,FALSE,FALSE,FALSE,0,FALSE,FALSE,FALSE,FALSE,95,25.557,4003,4214,25.477,FALSE,4.255,4.256,4.258,4.264,4.266,4.258,0.011,FALSE,FALSE,64.738,73.5,73.5,73.5,0,0,0,15,10,0,0,,Idle,0,30,FALSE,10,TRUE,9,Go Home,,,,5733.9,,FALSE,1,1,FALSE,FALSE,FALSE,FALSE,0,TRUE,FALSE,FALSE,Course Lock,65.6,36.3,,Calm,5,Android, 3.1.38,RGP Craft,410059536,,03LD015147,6781073611,39.987,0,0.7,0,0.2,1,0,RGP Craft,410059536,,03LD015147,6781073611,,Android, 3.1.38,,,,,,
6/15/2018,17:17:47,0m 2.4s,2.4,0,0,0,0,22,0,0,0,0,0,0,0,0,0,41.4,6.9,22.8,22.8,Manual Takeoff,Unpack Mode,Takeoff (RC Assisted),0,0,FALSE,,Inspire 1,FALSE,FALSE,,Smart,RC,FALSE,TRUE,FALSE,,Other (8),TRUE,,FALSE,FALSE,FALSE,FALSE,TRUE,FALSE,FALSE,FALSE,FALSE,TRUE,0,Follow Yaw,29.9,0,19.5,19.5,FALSE,FALSE,FALSE,FALSE,FALSE,FALSE,,TRUE,Normal,,,1024,1024,1024,1024,2,FALSE,FALSE,FALSE,FALSE,FALSE,0,FALSE,FALSE,FALSE,FALSE,95,25.558,4003,4214,25.374,FALSE,4.255,4.256,4.258,4.265,4.265,4.255,0.011,FALSE,FALSE,64.744,73.5,73.5,73.5,0,0,0,15,10,0,0,,Idle,0,30,FALSE,10,TRUE,9,Go Home,,,,5733.9,,FALSE,1,1,FALSE,FALSE,FALSE,FALSE,0,TRUE,FALSE,FALSE,Course Lock,65.6,36.3,,Calm,5,Android, 3.1.38,RGP Craft,410059536,,03LD015147,6781073611,39.987,0,0.7,0,0.2,1,0,RGP Craft,410059536,,03LD015147,6781073611,,Android, 3.1.38,,,,,,
6/15/2018,17:17:47,0m 2.7s,2.7,0,0,0,0,22.3,0,0,0,0,0,0,0,0,0,41.2,6.8,22.9,22.9,Manual Takeoff,Unpack Mode,Takeoff (RC Assisted),0,0,FALSE,,Inspire 1,FALSE,FALSE,,Smart,RC,FALSE,TRUE,FALSE,,Other (62),TRUE,,FALSE,FALSE,FALSE,FALSE,TRUE,FALSE,FALSE,FALSE,FALSE,TRUE,0,Follow Yaw,29.9,0,19.5,19.5,FALSE,FALSE,FALSE,FALSE,FALSE,FALSE,,TRUE,Normal,,,1024,1024,1024,1024,2,FALSE,FALSE,FALSE,FALSE,FALSE,0,FALSE,FALSE,FALSE,FALSE,95,25.558,4003,4214,25.374,FALSE,4.255,4.256,4.258,4.265,4.265,4.255,0.011,FALSE,FALSE,64.744,73.5,73.5,73.5,0,0,0,15,10,0,0,,Idle,0,30,FALSE,10,TRUE,9,Go Home,,,,5733.9,,FALSE,1,1,FALSE,FALSE,FALSE,FALSE,0,TRUE,FALSE,FALSE,Course Lock,65.6,36.3,,Calm,5,Android, 3.1.38,RGP Craft,410059536,,03LD015147,6781073611,39.987,0,0.7,0,0.2,1,0,RGP Craft,410059536,,03LD015147,6781073611,,Android, 3.1.38,,,,,,
6/15/2018,17:17:48,0m 2.9s,2.9,0,0,0,0,22.6,0,0,0,0,0,0,0,0,0,41.2,6.8,22.9,22.9,Manual Takeoff,Unpack Mode,Takeoff (RC Assisted),0,0,FALSE,,Inspire 1,FALSE,FALSE,,Smart,RC,FALSE,TRUE,FALSE,,Other (62),TRUE,,FALSE,FALSE,FALSE,FALSE,TRUE,FALSE,FALSE,FALSE,FALSE,TRUE,0,Follow Yaw,29.9,0,19.6,19.6,FALSE,FALSE,FALSE,FALSE,FALSE,FALSE,,TRUE,Normal,,,1024,1024,1024,1024,2,FALSE,FALSE,FALSE,FALSE,FALSE,0,FALSE,FALSE,FALSE,FALSE,95,25.558,4003,4214,25.374,FALSE,4.255,4.256,4.258,4.265,4.265,4.255,0.011,FALSE,FALSE,64.744,73.5,73.5,73.5,0,0,0,15,10,0,0,,Idle,0,30,FALSE,10,TRUE,9,Go Home,,,,5733.9,,FALSE,1,1,FALSE,FALSE,FALSE,FALSE,0,TRUE,FALSE,FALSE,Course Lock,65.6,36.3,,Calm,5,Android, 3.1.38,RGP Craft,410059536,,03LD015147,6781073611,39.987,0,0.7,0,0.2,1,0,RGP Craft,410059536,,03LD015147,6781073611,,Android, 3.1.38,,,,,,
6/15/2018,17:17:48,0m 3.0s,3,0,0,0,0,22.6,0,0,0,0,0,0,0,0,0,41.3,6.8,22.8,22.8,Manual Takeoff,Unpack Mode,Takeoff (RC Assisted),0,0,FALSE,,Inspire 1,FALSE,FALSE,,Smart,RC,FALSE,TRUE,FALSE,,Other (62),TRUE,,FALSE,FALSE,FALSE,FALSE,TRUE,FALSE,FALSE,FALSE,FALSE,TRUE,0,Follow Yaw,29.9,0,19.6,19.6,FALSE,FALSE,FALSE,FALSE,FALSE,FALSE,,TRUE,Normal,,,1024,1024,1024,1024,2,FALSE,FALSE,FALSE,FALSE,FALSE,0,FALSE,FALSE,FALSE,FALSE,95,25.558,4003,4214,25.374,FALSE,4.255,4.256,4.258,4.265,4.265,4.255,0.011,FALSE,FALSE,64.744,73.5,73.5,73.5,0,0,0,15,10,0,0,,Idle,0,30,FALSE,10,TRUE,9,Go Home,,,,5733.9,,FALSE,1,1,FALSE,FALSE,FALSE,FALSE,0,TRUE,FALSE,FALSE,Course Lock,65.6,36.3,,Calm,5,Android, 3.1.38,RGP Craft,410059536,,03LD015147,6781073611,39.987,0,0.7,0,0.2,1,0,RGP Craft,410059536,,03LD015147,6781073611,,Android, 3.1.38,,,,,,
6/15/2018,17:17:48,0m 3.2s,3.2,0,0,0.3,0.3,23,0,0,0,0,0,0,0,0,0,41.3,6.9,22.8,22.8,Manual Takeoff,Unpack Mode,Takeoff (RC Assisted),0,0,FALSE,,Inspire 1,FALSE,FALSE,,Smart,RC,FALSE,TRUE,FALSE,,Other (62),TRUE,,FALSE,FALSE,FALSE,FALSE,TRUE,FALSE,FALSE,FALSE,FALSE,TRUE,0,Follow Yaw,29.9,0,19.6,19.6,FALSE,FALSE,FALSE,FALSE,FALSE,FALSE,,TRUE,Normal,,,1024,1024,1024,1024,2,FALSE,FALSE,FALSE,FALSE,FALSE,0,FALSE,FALSE,FALSE,FALSE,95,25.558,4003,4214,25.374,FALSE,4.255,4.256,4.258,4.265,4.265,4.255,0.011,FALSE,FALSE,64.744,73.5,73.5,73.5,0,0,0,15,10,0,0,,Idle,0,30,FALSE,10,TRUE,9,Go Home,,,,5733.9,,FALSE,1,1,FALSE,FALSE,FALSE,FALSE,0,TRUE,FALSE,FALSE,Course Lock,65.6,36.3,,Calm,5,Android, 3.1.38,RGP Craft,410059536,,03LD015147,6781073611,39.987,0,0.7,0,0.2,1,0,RGP Craft,410059536,,03LD015147,6781073611,,Android, 3.1.38,,,,,,
6/15/2018,17:17:48,0m 3.4s,3.4,0,0,0.3,0.3,23.3,0,0,0,0,0,0,0,0,0,41.3,6.9,22.7,22.7,Manual Takeoff,Unpack Mode,Takeoff (RC Assisted),0,0,FALSE,,Inspire 1,FALSE,FALSE,,Smart,RC,FALSE,TRUE,FALSE,,Other (117),TRUE,,FALSE,FALSE,FALSE,FALSE,TRUE,FALSE,FALSE,FALSE,FALSE,TRUE,0,Follow Yaw,29.9,0,19.6,19.6,FALSE,FALSE,FALSE,FALSE,FALSE,FALSE,,TRUE,Normal,,,1024,1024,1024,1024,2,FALSE,FALSE,FALSE,FALSE,FALSE,0,FALSE,FALSE,FALSE,FALSE,95,25.558,4003,4214,25.374,FALSE,4.255,4.256,4.258,4.265,4.265,4.255,0.011,FALSE,FALSE,64.744,73.5,73.5,73.5,0,0,0,15,10,0,0,,Idle,0,30,FALSE,10,TRUE,9,Go Home,,,,5733.9,,FALSE,1,1,FALSE,FALSE,FALSE,FALSE,0,TRUE,FALSE,FALSE,Course Lock,65.6,36.3,,Calm,5,Android, 3.1.38,RGP Craft,410059536,,03LD015147,6781073611,39.987,0,0.7,0,0.2,1,0,RGP Craft,410059536,,03LD015147,6781073611,,Android, 3.1.38,,,,,,
6/15/2018,17:17:48,0m 3.6s,3.6,0,0,0.3,0.3,23.3,0,0,0,0,0,0,0,0,0,41.7,7,22.8,22.8,Manual Takeoff,Unpack Mode,Takeoff (RC Assisted),0,0,FALSE,,Inspire 1,FALSE,FALSE,,Smart,RC,FALSE,TRUE,FALSE,,Other (117),TRUE,,FALSE,FALSE,FALSE,FALSE,TRUE,FALSE,FALSE,FALSE,FALSE,TRUE,0,Follow Yaw,30,0,19.6,19.6,FALSE,FALSE,FALSE,FALSE,FALSE,FALSE,,TRUE,Normal,,,1024,1024,1024,1024,2,FALSE,FALSE,FALSE,FALSE,FALSE,0,FALSE,FALSE,FALSE,FALSE,95,25.558,4003,4214,25.374,FALSE,4.255,4.256,4.258,4.265,4.265,4.255,0.011,FALSE,FALSE,64.744,73.5,73.5,73.5,0,0,0,15,10,0,0,,Idle,0,30,FALSE,10,TRUE,9,Go Home,,,,5733.9,,FALSE,1,1,FALSE,FALSE,FALSE,FALSE,0,TRUE,FALSE,FALSE,Course Lock,65.6,36.3,,Calm,5,Android, 3.1.38,RGP Craft,410059536,,03LD015147,6781073611,39.987,0,0.7,0,0.2,1,0,RGP Craft,410059536,,03LD015147,6781073611,,Android, 3.1.38,,,,,,
6/15/2018,17:17:48,0m 3.7s,3.7,0,0,0.3,0.3,23.6,0,0,0,0,0,0,0,0,0,41.7,7,22.9,22.9,Manual Takeoff,Unpack Mode,Takeoff (RC Assisted),0,0,FALSE,,Inspire 1,FALSE,FALSE,,Smart,RC,FALSE,TRUE,FALSE,,Other (117),TRUE,,FALSE,FALSE,FALSE,FALSE,TRUE,FALSE,FALSE,FALSE,FALSE,TRUE,0,Follow Yaw,29.9,0,19.6,19.6,FALSE,FALSE,FALSE,FALSE,FALSE,FALSE,,TRUE,Normal,,,1024,1024,1024,1024,2,FALSE,FALSE,FALSE,FALSE,FALSE,0,FALSE,FALSE,FALSE,FALSE,95,25.558,4003,4214,25.374,FALSE,4.255,4.256,4.258,4.265,4.265,4.255,0.011,FALSE,FALSE,64.744,73.5,73.5,73.5,0,0,0,15,10,0,0,,Idle,0,30,FALSE,10,TRUE,9,Go Home,,,,5733.9,,FALSE,1,1,FALSE,FALSE,FALSE,FALSE,0,TRUE,FALSE,FALSE,Course Lock,65.6,36.3,,Calm,5,Android, 3.1.38,RGP Craft,410059536,,03LD015147,6781073611,39.987,0,0.7,0,0.2,1,0,RGP Craft,410059536,,03LD015147,6781073611,,Android, 3.1.38,,,,,,
6/15/2018,17:17:49,0m 3.9s,3.9,0,0,0.3,0.3,23.6,0,0,0,0,0,0,0,0,0,41.6,7.1,23,23,Manual Takeoff,Unpack Mode,Takeoff (RC Assisted),0,0,FALSE,,Inspire 1,FALSE,FALSE,,Smart,RC,FALSE,TRUE,FALSE,,Other (117),TRUE,,FALSE,FALSE,FALSE,FALSE,TRUE,FALSE,FALSE,FALSE,FALSE,TRUE,0,Follow Yaw,30,0,19.6,19.6,FALSE,FALSE,FALSE,FALSE,FALSE,FALSE,,TRUE,Normal,,,1024,1024,1024,1024,2,FALSE,FALSE,FALSE,FALSE,FALSE,0,FALSE,FALSE,FALSE,FALSE,95,25.558,4003,4214,25.374,FALSE,4.255,4.256,4.258,4.265,4.265,4.255,0.011,FALSE,FALSE,64.744,73.5,73.5,73.5,0,0,0,15,10,0,0,,Idle,0,30,FALSE,10,TRUE,9,Go Home,,,,5733.9,,FALSE,1,1,FALSE,FALSE,FALSE,FALSE,0,TRUE,FALSE,FALSE,Course Lock,65.6,36.3,,Calm,5,Android, 3.1.38,RGP Craft,410059536,,03LD015147,6781073611,39.987,0,0.7,0,0.2,1,0,RGP Craft,410059536,,03LD015147,6781073611,,Android, 3.1.38,,,,,,
6/15/2018,17:17:49,0m 4.1s,4.1,0,0,0.3,0.3,24,0,0,0,0,0,0,0,0,0,41.7,7.2,22.8,22.8,Manual Takeoff,Unpack Mode,Takeoff (RC Assisted),0,0,FALSE,,Inspire 1,FALSE,FALSE,,Smart,RC,FALSE,TRUE,FALSE,,Other (117),TRUE,,FALSE,FALSE,FALSE,FALSE,TRUE,FALSE,FALSE,FALSE,FALSE,TRUE,0,Follow Yaw,29.9,0,19.6,19.6,FALSE,FALSE,FALSE,FALSE,FALSE,FALSE,,TRUE,Normal,,,1024,1024,1024,1024,2,FALSE,FALSE,FALSE,FALSE,FALSE,0,FALSE,FALSE,FALSE,FALSE,95,25.558,4003,4214,25.374,FALSE,4.255,4.256,4.258,4.265,4.265,4.255,0.011,FALSE,FALSE,64.744,73.5,73.5,73.5,0,0,0,15,10,0,0,,Idle,0,30,FALSE,10,TRUE,9,Go Home,,,,5733.9,,FALSE,1,1,FALSE,FALSE,FALSE,FALSE,0,TRUE,FALSE,FALSE,Course Lock,65.6,36.3,,Calm,5,Android, 3.1.38,RGP Craft,410059536,,03LD015147,6781073611,39.987,0,0.7,0,0.2,1,0,RGP Craft,410059536,,03LD015147,6781073611,,Android, 3.1.38,,,,,,
6/15/2018,17:17:49,0m 4.2s,4.2,0,0,0.3,0.3,24,0,0,0,0,0,0,0,0,0,41,7,22.5,22.5,Manual Takeoff,Unpack Mode,Takeoff (RC Assisted),0,0,FALSE,,Inspire 1,FALSE,FALSE,,Smart,RC,FALSE,TRUE,FALSE,,Other (117),TRUE,,FALSE,FALSE,FALSE,FALSE,TRUE,FALSE,FALSE,FALSE,FALSE,TRUE,0,Follow Yaw,29.9,0,19.6,19.6,FALSE,FALSE,FALSE,FALSE,FALSE,FALSE,,TRUE,Normal,,,1024,1024,1024,1024,2,FALSE,FALSE,FALSE,FALSE,FALSE,0,FALSE,FALSE,FALSE,FALSE,95,25.498,4003,4214,25.377,FALSE,4.24,4.244,4.236,4.253,4.254,4.239,0.018,FALSE,FALSE,64.08,73.5,73.5,73.5,0,0,0,15,10,0,0,,Idle,0,30,FALSE,10,TRUE,9,Go Home,,,,5733.9,,FALSE,1,1,FALSE,FALSE,FALSE,FALSE,0,TRUE,FALSE,FALSE,Course Lock,65.6,36.3,,Calm,5,Android, 3.1.38,RGP Craft,410059536,,03LD015147,6781073611,39.987,0,0.7,0,0.2,1,0,RGP Craft,410059536,,03LD015147,6781073611,,Android, 3.1.38,,,,,,
6/15/2018,17:17:49,0m 4.3s,4.3,0,0,0.3,0.3,24.3,0,0,0,0,0,0,0,0,0,40.6,6.9,22.3,22.3,Manual Takeoff,Unpack Mode,Takeoff (RC Assisted),0,0,FALSE,,Inspire 1,FALSE,FALSE,,Smart,RC,FALSE,TRUE,FALSE,,Other (117),TRUE,,FALSE,FALSE,FALSE,FALSE,TRUE,FALSE,FALSE,FALSE,FALSE,TRUE,0,Follow Yaw,29.9,0,19.6,19.6,FALSE,FALSE,FALSE,FALSE,FALSE,FALSE,,TRUE,Normal,,,1024,1024,1024,1024,2,FALSE,FALSE,FALSE,FALSE,FALSE,0,FALSE,FALSE,FALSE,FALSE,95,25.498,4003,4214,25.377,FALSE,4.24,4.244,4.236,4.253,4.254,4.239,0.018,FALSE,FALSE,64.08,73.5,73.5,73.5,0,0,0,15,10,0,0,,Idle,0,30,FALSE,10,TRUE,9,Go Home,,,,5733.9,,FALSE,1,1,FALSE,FALSE,FALSE,FALSE,0,TRUE,FALSE,FALSE,Course Lock,65.6,36.3,,Calm,5,Android, 3.1.38,RGP Craft,410059536,,03LD015147,6781073611,39.987,0,0.7,0,0.2,1,0,RGP Craft,410059536,,03LD015147,6781073611,,Android, 3.1.38,,,,,,
6/15/2018,17:17:49,0m 4.4s,4.4,0,0,0.3,0.3,24.3,0,0,0,0,0,0,0,0,0,40.7,6.8,22.4,22.4,Manual Takeoff,Unpack Mode,Takeoff (RC Assisted),0,0,FALSE,,Inspire 1,FALSE,FALSE,,Smart,RC,FALSE,TRUE,FALSE,,Other (171),TRUE,,FALSE,FALSE,FALSE,FALSE,TRUE,FALSE,FALSE,FALSE,FALSE,TRUE,0,Follow Yaw,29.9,0,19.6,19.6,FALSE,FALSE,FALSE,FALSE,FALSE,FALSE,,TRUE,Normal,,,1024,1024,1024,1024,2,FALSE,FALSE,FALSE,FALSE,FALSE,0,FALSE,FALSE,FALSE,FALSE,95,25.498,4003,4214,25.377,FALSE,4.24,4.244,4.236,4.253,4.254,4.239,0.018,FALSE,FALSE,64.08,73.5,73.5,73.5,0,0,0,15,10,0,0,,Idle,0,30,FALSE,10,TRUE,9,Go Home,,,,5733.9,,FALSE,1,1,FALSE,FALSE,FALSE,FALSE,0,TRUE,FALSE,FALSE,Course Lock,65.6,36.3,,Calm,5,Android, 3.1.38,RGP Craft,410059536,,03LD015147,6781073611,39.987,0,0.7,0,0.2,1,0,RGP Craft,410059536,,03LD015147,6781073611,,Android, 3.1.38,,,,,,
6/15/2018,17:17:49,0m 4.5s,4.5,0,0,0,0.3,24.3,0,0,0,0,0,0,0,0,0,40.7,6.7,22.4,22.4,Manual Takeoff,Unpack Mode,Takeoff (RC Assisted),0,0,FALSE,,Inspire 1,FALSE,FALSE,,Smart,RC,FALSE,TRUE,FALSE,,Other (171),TRUE,,FALSE,FALSE,FALSE,FALSE,TRUE,FALSE,FALSE,FALSE,FALSE,TRUE,0,Follow Yaw,29.9,0,19.6,19.6,FALSE,FALSE,FALSE,FALSE,FALSE,FALSE,,TRUE,Normal,,,1024,1024,1024,1024,2,FALSE,FALSE,FALSE,FALSE,FALSE,0,FALSE,FALSE,FALSE,FALSE,95,25.498,4003,4214,25.377,FALSE,4.24,4.244,4.236,4.253,4.254,4.239,0.018,FALSE,FALSE,64.08,73.5,73.5,73.5,0,0,0,15,10,0,0,,Idle,0,30,FALSE,10,TRUE,9,Go Home,,,,5733.9,,FALSE,1,1,FALSE,FALSE,FALSE,FALSE,0,TRUE,FALSE,FALSE,Course Lock,65.6,36.3,,Calm,5,Android, 3.1.38,RGP Craft,410059536,,03LD015147,6781073611,39.987,0,0.7,0,0.2,1,0,RGP Craft,410059536,,03LD015147,6781073611,,Android, 3.1.38,,,,,,
6/15/2018,17:17:49,0m 4.6s,4.6,0,0,0,0.3,24.6,0,0,0,0,0,0,0,0,0,40.4,6.8,22.3,22.3,Manual Takeoff,Unpack Mode,Takeoff (RC Assisted),0,0,FALSE,,Inspire 1,FALSE,FALSE,,Smart,RC,FALSE,TRUE,FALSE,,Other (171),TRUE,,FALSE,FALSE,FALSE,FALSE,TRUE,FALSE,FALSE,FALSE,FALSE,TRUE,0,Follow Yaw,29.9,0,19.6,19.6,FALSE,FALSE,FALSE,FALSE,FALSE,FALSE,,TRUE,Normal,,,1024,1024,1024,1024,2,FALSE,FALSE,FALSE,FALSE,FALSE,0,FALSE,FALSE,FALSE,FALSE,95,25.498,4003,4214,25.377,FALSE,4.24,4.244,4.236,4.253,4.254,4.239,0.018,FALSE,FALSE,64.08,73.5,73.5,73.5,0,0,0,15,10,0,0,,Idle,0,30,FALSE,10,TRUE,9,Go Home,,,,5733.9,,FALSE,1,1,FALSE,FALSE,FALSE,FALSE,0,TRUE,FALSE,FALSE,Course Lock,65.6,36.3,,Calm,5,Android, 3.1.38,RGP Craft,410059536,,03LD015147,6781073611,39.987,0,0.7,0,0.2,1,0,RGP Craft,410059536,,03LD015147,6781073611,,Android, 3.1.38,,,,,,
6/15/2018,17:17:49,0m 4.7s,4.7,0,0,0,0.3,24.6,0,0,0,0,0,0,0,0,0,40.3,6.7,22.1,22.1,Manual Takeoff,Unpack Mode,Takeoff (RC Assisted),0,0,FALSE,,Inspire 1,FALSE,FALSE,,Smart,RC,FALSE,TRUE,FALSE,,Other (171),TRUE,,FALSE,FALSE,FALSE,FALSE,TRUE,FALSE,FALSE,FALSE,FALSE,TRUE,0,Follow Yaw,29.9,0,19.6,19.6,FALSE,FALSE,FALSE,FALSE,FALSE,FALSE,,TRUE,Normal,,,1024,1024,1024,1024,2,FALSE,FALSE,FALSE,FALSE,FALSE,0,FALSE,FALSE,FALSE,FALSE,95,25.498,4003,4214,25.377,FALSE,4.24,4.244,4.236,4.253,4.254,4.239,0.018,FALSE,FALSE,64.08,73.5,73.5,73.5,0,0,0,15,10,0,0,,Idle,0,30,FALSE,10,TRUE,9,Go Home,,,,5733.9,,FALSE,1,1,FALSE,FALSE,FALSE,FALSE,0,TRUE,FALSE,FALSE,Course Lock,65.6,36.3,,Calm,5,Android, 3.1.38,RGP Craft,410059536,,03LD015147,6781073611,39.987,0,0.7,0,0.2,1,0,RGP Craft,410059536,,03LD015147,6781073611,,Android, 3.1.38,,,,,,
6/15/2018,17:17:50,0m 4.9s,4.9,0,0,0,0.3,24.9,0,0,0,0,0,0,0,0,0,40.3,6.6,22,22,Manual Takeoff,Unpack Mode,Takeoff (RC Assisted),0,0,FALSE,,Inspire 1,FALSE,FALSE,,Smart,RC,FALSE,TRUE,FALSE,,Other (171),TRUE,,FALSE,FALSE,FALSE,FALSE,TRUE,FALSE,FALSE,FALSE,FALSE,TRUE,0,Follow Yaw,29.9,0,19.6,19.6,FALSE,FALSE,FALSE,FALSE,FALSE,FALSE,,TRUE,Normal,,,1024,1024,1024,1024,2,FALSE,FALSE,FALSE,FALSE,FALSE,0,FALSE,FALSE,FALSE,FALSE,95,25.498,4003,4214,25.377,FALSE,4.24,4.244,4.236,4.253,4.254,4.239,0.018,FALSE,FALSE,64.08,73.5,73.5,73.5,0,0,0,15,10,0,0,,Idle,0,30,FALSE,10,TRUE,9,Go Home,,,,5733.9,,FALSE,1,1,FALSE,FALSE,FALSE,FALSE,0,TRUE,FALSE,FALSE,Course Lock,65.6,36.3,,Calm,5,Android, 3.1.38,RGP Craft,410059536,,03LD015147,6781073611,39.987,0,0.7,0,0.2,1,0,RGP Craft,410059536,,03LD015147,6781073611,,Android, 3.1.38,,,,,,
6/15/2018,17:17:50,0m 5.0s,5,0,0,0.3,0.3,24.9,0,0,0,0,0,0,0,0,0,40.1,6.5,21.7,21.7,Manual Takeoff,Unpack Mode,Takeoff (RC Assisted),0,0,FALSE,,Inspire 1,FALSE,FALSE,,Smart,RC,FALSE,TRUE,FALSE,,Other (171),TRUE,,FALSE,FALSE,FALSE,FALSE,TRUE,FALSE,FALSE,FALSE,FALSE,TRUE,0,Follow Yaw,29.9,0,19.6,19.6,FALSE,FALSE,FALSE,FALSE,FALSE,FALSE,,TRUE,Normal,,,1024,1024,1024,1024,2,FALSE,FALSE,FALSE,FALSE,FALSE,0,FALSE,FALSE,FALSE,FALSE,95,25.498,4003,4214,25.377,FALSE,4.24,4.244,4.236,4.253,4.254,4.239,0.018,FALSE,FALSE,64.08,73.5,73.5,73.5,0,0,0,15,10,0,0,,Idle,0,30,FALSE,10,TRUE,9,Go Home,,,,5733.9,,FALSE,1,1,FALSE,FALSE,FALSE,FALSE,0,TRUE,FALSE,FALSE,Course Lock,65.6,36.3,,Calm,5,Android, 3.1.38,RGP Craft,410059536,,03LD015147,6781073611,39.987,0,0.7,0,0.2,1,0,RGP Craft,410059536,,03LD015147,6781073611,,Android, 3.1.38,,,,,,
6/15/2018,17:17:50,0m 5.1s,5.1,0,0,0,0.3,24.9,0,0,0,0,0,0,0,0,0,39.9,6.6,21.7,21.7,Manual Takeoff,Unpack Mode,Takeoff (RC Assisted),0,0,FALSE,,Inspire 1,FALSE,FALSE,,Smart,RC,FALSE,TRUE,FALSE,,Other (171),TRUE,,FALSE,FALSE,FALSE,FALSE,TRUE,FALSE,FALSE,FALSE,FALSE,TRUE,0,Follow Yaw,29.9,0,19.6,19.6,FALSE,FALSE,FALSE,FALSE,FALSE,FALSE,,TRUE,Normal,,,1024,1024,1024,1024,2,FALSE,FALSE,FALSE,FALSE,FALSE,0,FALSE,FALSE,FALSE,FALSE,95,25.498,4003,4214,25.377,FALSE,4.24,4.244,4.236,4.253,4.254,4.239,0.018,FALSE,FALSE,64.08,73.5,73.5,73.5,0,0,0,15,10,0,0,,Idle,0,30,FALSE,10,TRUE,9,Go Home,,,,5733.9,,FALSE,1,1,FALSE,FALSE,FALSE,FALSE,0,TRUE,FALSE,FALSE,Course Lock,65.6,36.3,,Calm,5,Android, 3.1.38,RGP Craft,410059536,,03LD015147,6781073611,39.987,0,0.7,0,0.2,1,0,RGP Craft,410059536,,03LD015147,6781073611,,Android, 3.1.38,,,,,,
6/15/2018,17:17:50,0m 5.4s,5.4,0,0,0.3,0.3,25.6,0,0,0,0,0,0,0,0,0,40.3,6.6,21.8,21.8,Manual Takeoff,Unpack Mode,Takeoff (RC Assisted),0,0,FALSE,,Inspire 1,FALSE,FALSE,,Smart,RC,FALSE,TRUE,FALSE,,Other (226),TRUE,,FALSE,FALSE,FALSE,FALSE,TRUE,FALSE,FALSE,FALSE,FALSE,TRUE,0,Follow Yaw,29.9,0,19.6,19.6,FALSE,FALSE,FALSE,FALSE,FALSE,FALSE,,TRUE,Normal,,,1024,1024,1024,1024,2,TRUE,FALSE,FALSE,FALSE,FALSE,1,FALSE,FALSE,FALSE,FALSE,95,25.498,4003,4214,25.377,FALSE,4.24,4.244,4.236,4.253,4.254,4.239,0.018,FALSE,FALSE,64.08,73.5,73.5,73.5,0,0,0,15,10,0,0,,Idle,0,30,FALSE,10,TRUE,9,Go Home,,,,5733.9,,FALSE,1,1,FALSE,FALSE,FALSE,FALSE,0,TRUE,FALSE,FALSE,Course Lock,65.6,36.3,,Calm,5,Android, 3.1.38,RGP Craft,410059536,,03LD015147,6781073611,39.987,0,0.7,0,0.2,1,0,RGP Craft,410059536,,03LD015147,6781073611,,Android, 3.1.38,,,,,,
6/15/2018,17:17:50,0m 5.7s,5.7,0,0,0.3,0.3,25.9,0,0,0,0,0,0,0,0,0,40.3,6.7,21.8,21.8,Manual Takeoff,Unpack Mode,Takeoff (RC Assisted),0,0,FALSE,,Inspire 1,FALSE,FALSE,,Smart,RC,FALSE,TRUE,FALSE,,Other (226),TRUE,,FALSE,FALSE,FALSE,FALSE,TRUE,FALSE,FALSE,FALSE,FALSE,TRUE,0,Follow Yaw,29.9,0,19.6,19.6,FALSE,FALSE,FALSE,FALSE,FALSE,FALSE,,TRUE,Normal,,,1024,1024,1024,1024,2,FALSE,FALSE,FALSE,FALSE,FALSE,0,FALSE,FALSE,FALSE,FALSE,95,25.454,4003,4214,25.375,FALSE,4.237,4.239,4.241,4.248,4.248,4.241,0.018,FALSE,FALSE,63.942,73.5,73.5,73.5,0,0,0,15,10,0,0,,Idle,0,30,FALSE,10,TRUE,9,Go Home,,,,5733.9,,FALSE,1,1,FALSE,FALSE,FALSE,FALSE,0,TRUE,FALSE,FALSE,Course Lock,65.6,36.3,,Calm,5,Android, 3.1.38,RGP Craft,410059536,,03LD015147,6781073611,39.987,0,0.7,0,0.2,1,0,RGP Craft,410059536,,03LD015147,6781073611,,Android, 3.1.38,,,,,,
6/15/2018,17:17:51,0m 6.0s,6,0,0,0.3,0.3,26.2,0,0,0,0,0,0,0,0,0,40.4,6.7,21.8,21.8,Manual Takeoff,Unpack Mode,Takeoff (RC Assisted),0,0,FALSE,,Inspire 1,FALSE,FALSE,,Smart,RC,FALSE,TRUE,FALSE,,Other (226),TRUE,,FALSE,FALSE,FALSE,FALSE,TRUE,FALSE,FALSE,FALSE,FALSE,TRUE,0,Follow Yaw,29.9,0,19.6,19.6,FALSE,FALSE,FALSE,FALSE,FALSE,FALSE,,TRUE,Normal,,,1024,1024,1024,1024,2,FALSE,FALSE,FALSE,FALSE,FALSE,0,FALSE,FALSE,FALSE,FALSE,95,25.454,4003,4214,25.375,FALSE,4.237,4.239,4.241,4.248,4.248,4.241,0.018,FALSE,FALSE,63.942,73.5,73.5,73.5,0,0,0,15,10,0,0,,Idle,0,30,FALSE,10,TRUE,9,Go Home,,,,5733.9,,FALSE,1,1,FALSE,FALSE,FALSE,FALSE,0,TRUE,FALSE,FALSE,Course Lock,65.6,36.3,,Calm,5,Android, 3.1.38,RGP Craft,410059536,,03LD015147,6781073611,39.987,0,0.7,0,0.2,1,0,RGP Craft,410059536,,03LD015147,6781073611,,Android, 3.1.38,,,,,,
6/15/2018,17:17:51,0m 6.1s,6.1,0,0,0,0.3,26.2,0,0,0,0,0,0,0,0,0,40.4,6.7,21.8,21.8,Manual Takeoff,Unpack Mode,Takeoff (RC Assisted),0,0,FALSE,,Inspire 1,FALSE,FALSE,,Smart,RC,FALSE,TRUE,FALSE,,Other (226),TRUE,,FALSE,FALSE,FALSE,FALSE,TRUE,FALSE,FALSE,FALSE,FALSE,TRUE,0,Follow Yaw,29.9,0,19.6,19.6,FALSE,FALSE,FALSE,FALSE,FALSE,FALSE,,TRUE,Normal,,,1024,1024,1024,1024,2,FALSE,FALSE,FALSE,FALSE,FALSE,1,FALSE,FALSE,FALSE,FALSE,95,25.454,4003,4214,25.375,FALSE,4.237,4.239,4.241,4.248,4.248,4.241,0.018,FALSE,FALSE,63.942,73.5,73.5,73.5,0,0,0,15,10,0,0,,Idle,0,30,FALSE,10,TRUE,9,Go Home,,,,5733.9,,FALSE,1,1,FALSE,FALSE,FALSE,FALSE,0,TRUE,FALSE,FALSE,Course Lock,65.6,36.3,,Calm,5,Android, 3.1.38,RGP Craft,410059536,,03LD015147,6781073611,39.987,0,0.7,0,0.2,1,0,RGP Craft,410059536,,03LD015147,6781073611,,Android, 3.1.38,,,,,,
6/15/2018,17:17:51,0m 6.5s,6.5,0,0,0,0.3,26.6,0,0,0,0,0,0,0,0,0,40.6,6.7,21.8,21.8,Manual Takeoff,Unpack Mode,Takeoff (RC Assisted),0,0,FALSE,,Inspire 1,FALSE,FALSE,,Smart,RC,FALSE,TRUE,FALSE,,Other (24),TRUE,,FALSE,FALSE,FALSE,FALSE,TRUE,FALSE,FALSE,FALSE,FALSE,TRUE,0,Follow Yaw,29.9,0,19.6,19.6,FALSE,FALSE,FALSE,FALSE,FALSE,FALSE,,TRUE,Normal,,,1024,1024,1024,1024,2,FALSE,FALSE,FALSE,FALSE,FALSE,1,FALSE,FALSE,FALSE,FALSE,95,25.454,4003,4214,25.375,FALSE,4.237,4.239,4.241,4.248,4.248,4.241,0.018,FALSE,FALSE,63.942,73.5,73.5,73.5,0,0,0,15,10,0,0,,Idle,0,30,FALSE,10,TRUE,9,Go Home,,,,5733.9,,FALSE,1,1,FALSE,FALSE,FALSE,FALSE,0,TRUE,FALSE,FALSE,Course Lock,65.6,36.3,,Calm,5,Android, 3.1.38,RGP Craft,410059536,,03LD015147,6781073611,39.987,0,0.7,0,0.2,1,0,RGP Craft,410059536,,03LD015147,6781073611,,Android, 3.1.38,,,,,,
6/15/2018,17:17:52,0m 6.9s,6.9,0,0,0,0.3,27.2,0,0,0,0,0,0,0,0,0,40.6,6.7,21.8,21.8,Manual Takeoff,Unpack Mode,Takeoff (RC Assisted),0,0,FALSE,,Inspire 1,FALSE,FALSE,,Smart,RC,FALSE,TRUE,FALSE,,Other (24),TRUE,,FALSE,FALSE,FALSE,FALSE,TRUE,FALSE,FALSE,FALSE,FALSE,TRUE,0,Follow Yaw,30,0,19.6,19.6,FALSE,FALSE,FALSE,FALSE,FALSE,FALSE,,TRUE,Normal,,,1024,1024,1024,1024,2,FALSE,FALSE,FALSE,FALSE,FALSE,3,FALSE,FALSE,FALSE,FALSE,95,25.454,4003,4214,25.375,FALSE,4.237,4.239,4.241,4.248,4.248,4.241,0.018,FALSE,FALSE,63.942,73.5,73.5,73.5,0,0,0,15,10,0,0,,Idle,0,30,FALSE,10,TRUE,9,Go Home,,,,5733.9,,FALSE,1,1,FALSE,FALSE,FALSE,FALSE,0,TRUE,FALSE,FALSE,Course Lock,65.6,36.3,,Calm,5,Android, 3.1.38,RGP Craft,410059536,,03LD015147,6781073611,39.987,0,0.7,0,0.2,1,0,RGP Craft,410059536,,03LD015147,6781073611,,Android, 3.1.38,,,,,,
6/15/2018,17:17:52,0m 7.0s,7,0,0,0.3,0.3,27.2,0,0,0,0,0,0,0,0,0,40.7,6.7,21.8,21.8,Manual Takeoff,Unpack Mode,Takeoff (RC Assisted),0,0,FALSE,,Inspire 1,FALSE,FALSE,,Smart,RC,FALSE,TRUE,FALSE,,Other (24),TRUE,,FALSE,FALSE,FALSE,FALSE,TRUE,FALSE,FALSE,FALSE,FALSE,TRUE,0,Follow Yaw,30,0,19.6,19.6,FALSE,FALSE,FALSE,FALSE,FALSE,FALSE,,TRUE,Normal,,,1024,1024,1024,1024,2,FALSE,FALSE,FALSE,FALSE,FALSE,3,FALSE,FALSE,FALSE,FALSE,95,25.454,4003,4214,25.375,FALSE,4.237,4.239,4.241,4.248,4.248,4.241,0.018,FALSE,FALSE,63.942,73.5,73.5,73.5,0,0,0,15,10,0,0,,Idle,0,30,FALSE,10,TRUE,9,Go Home,,,,5733.9,,FALSE,1,1,FALSE,FALSE,FALSE,FALSE,0,TRUE,FALSE,FALSE,Course Lock,65.6,36.3,,Calm,5,Android, 3.1.38,RGP Craft,410059536,,03LD015147,6781073611,39.987,0,0.7,0,0.2,1,0,RGP Craft,410059536,,03LD015147,6781073611,,Android, 3.1.38,,,,,,
6/15/2018,17:17:52,0m 7.1s,7.1,0,0,0.3,0.3,27.6,0,0,0,0,0,0,0,0,0,40.8,6.8,21.8,21.8,Manual Takeoff,Unpack Mode,Takeoff (RC Assisted),0,0,FALSE,,Inspire 1,FALSE,FALSE,,Smart,RC,FALSE,TRUE,FALSE,,Other (24),TRUE,,FALSE,FALSE,FALSE,FALSE,TRUE,FALSE,FALSE,FALSE,FALSE,TRUE,0,Follow Yaw,30,0,19.6,19.6,FALSE,FALSE,FALSE,FALSE,FALSE,FALSE,,TRUE,Normal,,,1024,1024,1024,1024,2,FALSE,FALSE,FALSE,FALSE,FALSE,0,FALSE,FALSE,FALSE,FALSE,95,25.454,4003,4214,25.375,FALSE,4.237,4.239,4.241,4.248,4.248,4.241,0.018,FALSE,FALSE,63.942,73.5,73.5,73.5,0,0,0,15,10,0,0,,Idle,0,30,FALSE,10,TRUE,9,Go Home,,,,5733.9,,FALSE,1,1,FALSE,FALSE,FALSE,FALSE,0,TRUE,FALSE,FALSE,Course Lock,65.6,36.3,,Calm,5,Android, 3.1.38,RGP Craft,410059536,,03LD015147,6781073611,39.987,0,0.7,0,0.2,1,0,RGP Craft,410059536,,03LD015147,6781073611,,Android, 3.1.38,,,,,,
6/15/2018,17:17:52,0m 7.2s,7.2,0,0,0.3,0.3,27.6,0,0,0,0,0,0,0,0,0,40.9,6.8,21.8,21.8,Manual Takeoff,Unpack Mode,Takeoff (RC Assisted),0,0,FALSE,,Inspire 1,FALSE,FALSE,,Smart,RC,FALSE,TRUE,FALSE,,Other (24),TRUE,,FALSE,FALSE,FALSE,FALSE,TRUE,FALSE,FALSE,FALSE,FALSE,TRUE,0,Follow Yaw,30,0,19.6,19.6,FALSE,FALSE,FALSE,FALSE,FALSE,FALSE,,TRUE,Normal,,,1024,1024,1024,1024,2,FALSE,FALSE,FALSE,FALSE,FALSE,3,FALSE,FALSE,FALSE,FALSE,95,25.454,4003,4214,25.375,FALSE,4.237,4.239,4.241,4.248,4.248,4.241,0.018,FALSE,FALSE,63.942,73.5,73.5,73.5,0,0,0,15,10,0,0,,Idle,0,30,FALSE,10,TRUE,9,Go Home,,,,5733.9,,FALSE,1,1,FALSE,FALSE,FALSE,FALSE,0,TRUE,FALSE,FALSE,Course Lock,65.6,36.3,,Calm,5,Android, 3.1.38,RGP Craft,410059536,,03LD015147,6781073611,39.987,0,0.7,0,0.2,1,0,RGP Craft,410059536,,03LD015147,6781073611,,Android, 3.1.38,,,,,,
6/15/2018,17:17:52,0m 7.3s,7.3,0,0,0.3,0.3,27.6,0,0,0,0,0,0,0,0,0,40.8,6.7,21.8,21.8,Manual Takeoff,Unpack Mode,Takeoff (RC Assisted),0,0,FALSE,,Inspire 1,FALSE,FALSE,,Smart,RC,FALSE,TRUE,FALSE,,Other (24),TRUE,,FALSE,FALSE,FALSE,FALSE,TRUE,FALSE,FALSE,FALSE,FALSE,TRUE,0,Follow Yaw,29.9,0,19.6,19.6,FALSE,FALSE,FALSE,FALSE,FALSE,FALSE,,TRUE,Normal,,,1024,1024,1024,1024,2,FALSE,FALSE,FALSE,FALSE,FALSE,0,FALSE,FALSE,FALSE,FALSE,95,25.454,4003,4214,25.375,FALSE,4.237,4.239,4.241,4.248,4.248,4.241,0.018,FALSE,FALSE,63.942,73.5,73.5,73.5,0,0,0,15,10,0,0,,Idle,0,30,FALSE,10,TRUE,9,Go Home,,,,5733.9,,FALSE,1,1,FALSE,FALSE,FALSE,FALSE,0,TRUE,FALSE,FALSE,Course Lock,65.6,36.3,,Calm,5,Android, 3.1.38,RGP Craft,410059536,,03LD015147,6781073611,39.987,0,0.7,0,0.2,1,0,RGP Craft,410059536,,03LD015147,6781073611,,Android, 3.1.38,,,,,,
6/15/2018,17:17:52,0m 7.5s,7.5,0,0,0.3,0.3,27.9,0,0,0,0,0,0,0,0,0,40.7,6.7,21.7,21.7,Manual Takeoff,Unpack Mode,Takeoff (RC Assisted),0,0,FALSE,,Inspire 1,FALSE,FALSE,,Smart,RC,FALSE,TRUE,FALSE,,Other (79),TRUE,,FALSE,FALSE,FALSE,FALSE,TRUE,FALSE,FALSE,FALSE,FALSE,TRUE,0,Follow Yaw,29.9,0,19.6,19.6,FALSE,FALSE,FALSE,FALSE,FALSE,FALSE,,TRUE,Normal,,,1024,1024,1024,1024,2,FALSE,FALSE,FALSE,FALSE,FALSE,3,FALSE,FALSE,FALSE,FALSE,95,25.454,4003,4214,25.375,FALSE,4.237,4.239,4.241,4.248,4.248,4.241,0.018,FALSE,FALSE,63.942,73.5,73.5,73.5,0,0,0,15,10,0,0,,Idle,0,30,FALSE,10,TRUE,9,Go Home,,,,5733.9,,FALSE,1,1,FALSE,FALSE,FALSE,FALSE,0,TRUE,FALSE,FALSE,Course Lock,65.6,36.3,,Calm,5,Android, 3.1.38,RGP Craft,410059536,,03LD015147,6781073611,39.987,0,0.7,0,0.2,1,0,RGP Craft,410059536,,03LD015147,6781073611,,Android, 3.1.38,,,,,,
6/15/2018,17:17:52,0m 7.6s,7.6,0,0,0.3,0.3,27.9,0,0,0,0,0,0,0,0,0,40.7,6.7,21.6,21.6,Manual Takeoff,Unpack Mode,Takeoff (RC Assisted),0,0,FALSE,,Inspire 1,FALSE,FALSE,,Smart,RC,FALSE,TRUE,FALSE,,Other (79),TRUE,,FALSE,FALSE,FALSE,FALSE,TRUE,FALSE,FALSE,FALSE,FALSE,TRUE,0,Follow Yaw,30,0,19.6,19.6,FALSE,FALSE,FALSE,FALSE,FALSE,FALSE,,TRUE,Normal,,,1024,1024,1024,1024,2,FALSE,FALSE,FALSE,FALSE,FALSE,0,FALSE,FALSE,FALSE,FALSE,95,25.447,4003,4214,25.37,FALSE,4.236,4.239,4.24,4.247,4.248,4.24,0.018,FALSE,FALSE,63.944,73.5,73.5,73.5,0,0,0,15,10,0,0,,Idle,0,30,FALSE,10,TRUE,9,Go Home,,,,5733.9,,FALSE,1,1,FALSE,FALSE,FALSE,FALSE,0,TRUE,FALSE,FALSE,Course Lock,65.6,36.3,,Calm,5,Android, 3.1.38,RGP Craft,410059536,,03LD015147,6781073611,39.987,0,0.7,0,0.2,1,0,RGP Craft,410059536,,03LD015147,6781073611,,Android, 3.1.38,,,,,,
6/15/2018,17:17:53,0m 7.8s,7.8,0,0,0.3,0.3,28.2,0,0,0,0,0,0,0,0,0,40.7,6.7,21.7,21.7,Manual Takeoff,Unpack Mode,Takeoff (RC Assisted),0,0,FALSE,,Inspire 1,FALSE,FALSE,,Smart,RC,FALSE,TRUE,FALSE,,Other (79),TRUE,,FALSE,FALSE,FALSE,FALSE,TRUE,FALSE,FALSE,FALSE,FALSE,TRUE,0,Follow Yaw,29.9,0,19.6,19.6,FALSE,FALSE,FALSE,FALSE,FALSE,FALSE,,TRUE,Normal,,,1024,1024,1024,1024,2,FALSE,FALSE,FALSE,FALSE,FALSE,0,FALSE,FALSE,FALSE,FALSE,95,25.447,4003,4214,25.37,FALSE,4.236,4.239,4.24,4.247,4.248,4.24,0.018,FALSE,FALSE,63.944,73.5,73.5,73.5,0,0,0,15,10,0,0,,Idle,0,30,FALSE,10,TRUE,9,Go Home,,,,5733.9,,FALSE,1,1,FALSE,FALSE,FALSE,FALSE,0,TRUE,FALSE,FALSE,Course Lock,65.6,36.3,,Calm,5,Android, 3.1.38,RGP Craft,410059536,,03LD015147,6781073611,39.987,0,0.7,0,0.2,1,0,RGP Craft,410059536,,03LD015147,6781073611,,Android, 3.1.38,,,,,,
6/15/2018,17:17:53,0m 8.0s,8,0,0,0.3,0.3,28.5,0,0,0,0,0,0,0,0,0,40.6,6.7,21.6,21.6,Manual Takeoff,Unpack Mode,Takeoff (RC Assisted),0,0,FALSE,,Inspire 1,FALSE,FALSE,,Smart,RC,FALSE,TRUE,FALSE,,Other (79),TRUE,,FALSE,FALSE,FALSE,FALSE,TRUE,FALSE,FALSE,FALSE,FALSE,TRUE,0,Follow Yaw,29.9,0,19.6,19.6,FALSE,FALSE,FALSE,FALSE,FALSE,FALSE,,TRUE,Normal,,,1024,1024,1024,1024,2,FALSE,FALSE,FALSE,FALSE,FALSE,0,FALSE,FALSE,FALSE,FALSE,95,25.447,4003,4214,25.37,FALSE,4.236,4.239,4.24,4.247,4.248,4.24,0.018,FALSE,FALSE,63.944,73.5,73.5,73.5,0,0,0,15,10,0,0,,Idle,0,30,FALSE,10,TRUE,9,Go Home,,,,5733.9,,FALSE,1,1,FALSE,FALSE,FALSE,FALSE,0,TRUE,FALSE,FALSE,Course Lock,65.6,36.3,,Calm,5,Android, 3.1.38,RGP Craft,410059536,,03LD015147,6781073611,39.987,0,0.7,0,0.2,1,0,RGP Craft,410059536,,03LD015147,6781073611,,Android, 3.1.38,,,,,,
6/15/2018,17:17:53,0m 8.1s,8.1,0,0,0.3,0.3,28.5,0,0,0,0,0,0,0,0,0,40.7,6.7,21.6,21.6,Manual Takeoff,Unpack Mode,Takeoff (RC Assisted),0,0,FALSE,,Inspire 1,FALSE,FALSE,,Smart,RC,FALSE,TRUE,FALSE,,Other (79),TRUE,,FALSE,FALSE,FALSE,FALSE,TRUE,FALSE,FALSE,FALSE,FALSE,TRUE,0,Follow Yaw,30,0,19.6,19.6,FALSE,FALSE,FALSE,FALSE,FALSE,FALSE,,TRUE,Normal,,,1024,1024,1024,1024,2,FALSE,FALSE,FALSE,FALSE,FALSE,0,FALSE,FALSE,FALSE,FALSE,95,25.447,4003,4214,25.37,FALSE,4.236,4.239,4.24,4.247,4.248,4.24,0.018,FALSE,FALSE,63.944,73.5,73.5,73.5,0,0,0,15,10,0,0,,Idle,0,30,FALSE,10,TRUE,9,Go Home,,,,5733.9,,FALSE,1,1,FALSE,FALSE,FALSE,FALSE,0,TRUE,FALSE,FALSE,Course Lock,65.6,36.3,,Calm,5,Android, 3.1.38,RGP Craft,410059536,,03LD015147,6781073611,39.987,0,0.7,0,0.2,1,0,RGP Craft,410059536,,03LD015147,6781073611,,Android, 3.1.38,,,,,,
6/15/2018,17:17:53,0m 8.2s,8.2,0,0,0.3,0.3,28.5,0,0,0,0,0,0,0,0,0,40.8,6.8,21.7,21.7,Manual Takeoff,Unpack Mode,Takeoff (RC Assisted),0,0,FALSE,,Inspire 1,FALSE,FALSE,,Smart,RC,FALSE,TRUE,FALSE,,Other (79),TRUE,,FALSE,FALSE,FALSE,FALSE,TRUE,FALSE,FALSE,FALSE,FALSE,TRUE,0,Follow Yaw,30,0,19.6,19.6,FALSE,FALSE,FALSE,FALSE,FALSE,FALSE,,TRUE,Normal,,,1024,1024,1024,1024,2,FALSE,FALSE,FALSE,FALSE,FALSE,0,FALSE,FALSE,FALSE,FALSE,95,25.447,4003,4214,25.37,FALSE,4.236,4.239,4.24,4.247,4.248,4.24,0.018,FALSE,FALSE,63.944,73.5,73.5,73.5,0,0,0,15,10,0,0,,Idle,0,30,FALSE,10,TRUE,9,Go Home,,,,5733.9,,FALSE,1,1,FALSE,FALSE,FALSE,FALSE,0,TRUE,FALSE,FALSE,Course Lock,65.6,36.3,,Calm,5,Android, 3.1.38,RGP Craft,410059536,,03LD015147,6781073611,39.987,0,0.7,0,0.2,1,0,RGP Craft,410059536,,03LD015147,6781073611,,Android, 3.1.38,,,,,,
6/15/2018,17:17:53,0m 8.3s,8.3,0,0,0.3,0.3,28.9,0,0,0,0,0,0,0,0,0,40.8,6.8,21.8,21.8,Manual Takeoff,Unpack Mode,Takeoff (RC Assisted),0,0,FALSE,,Inspire 1,FALSE,FALSE,,Smart,RC,FALSE,TRUE,FALSE,,Other (133),TRUE,,FALSE,FALSE,FALSE,FALSE,TRUE,FALSE,FALSE,FALSE,FALSE,TRUE,0,Follow Yaw,30,0,19.6,19.6,FALSE,FALSE,FALSE,FALSE,FALSE,FALSE,,TRUE,Normal,,,1024,1024,1024,1024,2,FALSE,FALSE,FALSE,FALSE,FALSE,0,FALSE,FALSE,FALSE,FALSE,95,25.447,4003,4214,25.37,FALSE,4.236,4.239,4.24,4.247,4.248,4.24,0.018,FALSE,FALSE,63.944,73.5,73.5,73.5,0,0,0,15,10,0,0,,Idle,0,30,FALSE,10,TRUE,9,Go Home,,,,5733.9,,FALSE,1,1,FALSE,FALSE,FALSE,FALSE,0,TRUE,FALSE,FALSE,Course Lock,65.6,36.3,,Calm,5,Android, 3.1.38,RGP Craft,410059536,,03LD015147,6781073611,39.987,0,0.7,0,0.2,1,0,RGP Craft,410059536,,03LD015147,6781073611,,Android, 3.1.38,,,,,,
6/15/2018,17:17:53,0m 8.4s,8.4,0,0,0.3,0.3,28.9,0,0,0,0,0,0,0,0,0,41,6.9,21.9,21.9,Manual Takeoff,Unpack Mode,Takeoff (RC Assisted),0,0,FALSE,,Inspire 1,FALSE,FALSE,,Smart,RC,FALSE,TRUE,FALSE,,Other (133),TRUE,,FALSE,FALSE,FALSE,FALSE,TRUE,FALSE,FALSE,FALSE,FALSE,TRUE,0,Follow Yaw,30,0,19.6,19.6,FALSE,FALSE,FALSE,FALSE,FALSE,FALSE,,TRUE,Normal,,,1024,1024,1024,1024,2,FALSE,FALSE,FALSE,FALSE,FALSE,0,FALSE,FALSE,FALSE,FALSE,95,25.447,4003,4214,25.37,FALSE,4.236,4.239,4.24,4.247,4.248,4.24,0.018,FALSE,FALSE,63.944,73.5,73.5,73.5,0,0,0,15,10,0,0,,Idle,0,30,FALSE,10,TRUE,9,Go Home,,,,5733.9,,FALSE,1,1,FALSE,FALSE,FALSE,FALSE,0,TRUE,FALSE,FALSE,Course Lock,65.6,36.3,,Calm,5,Android, 3.1.38,RGP Craft,410059536,,03LD015147,6781073611,39.987,0,0.7,0,0.2,1,0,RGP Craft,410059536,,03LD015147,6781073611,,Android, 3.1.38,,,,,,
6/15/2018,17:17:53,0m 8.5s,8.5,0,0,0.3,0.3,28.9,0,0,0,0,0,0,0,0,0,41.2,7,21.9,21.9,Manual Takeoff,Unpack Mode,Takeoff (RC Assisted),0,0,FALSE,,Inspire 1,FALSE,FALSE,,Smart,RC,FALSE,TRUE,FALSE,,Other (133),TRUE,,FALSE,FALSE,FALSE,FALSE,TRUE,FALSE,FALSE,FALSE,FALSE,TRUE,0,Follow Yaw,30,0,19.6,19.6,FALSE,FALSE,FALSE,FALSE,FALSE,FALSE,,TRUE,Normal,,,1024,1024,1024,1024,2,FALSE,FALSE,FALSE,FALSE,FALSE,0,FALSE,FALSE,FALSE,FALSE,95,25.447,4003,4214,25.37,FALSE,4.236,4.239,4.24,4.247,4.248,4.24,0.018,FALSE,FALSE,63.944,73.5,73.5,73.5,0,0,0,15,10,0,0,,Idle,0,30,FALSE,10,TRUE,9,Go Home,,,,5733.9,,FALSE,1,1,FALSE,FALSE,FALSE,FALSE,0,TRUE,FALSE,FALSE,Course Lock,65.6,36.3,,Calm,5,Android, 3.1.38,RGP Craft,410059536,,03LD015147,6781073611,39.987,0,0.7,0,0.2,1,0,RGP Craft,410059536,,03LD015147,6781073611,,Android, 3.1.38,,,,,,
6/15/2018,17:17:53,0m 8.8s,8.8,0,0,0.3,0.3,29.2,0,0,0,0,0,0,0,0,0,42.5,7,22,22,Manual Takeoff,Unpack Mode,Takeoff (RC Assisted),0,0,FALSE,,Inspire 1,FALSE,FALSE,,Smart,RC,FALSE,TRUE,FALSE,,Other (133),TRUE,,FALSE,FALSE,FALSE,FALSE,TRUE,FALSE,FALSE,FALSE,FALSE,TRUE,0,Follow Yaw,30,0,19.6,19.6,FALSE,FALSE,FALSE,FALSE,FALSE,FALSE,,TRUE,Normal,,,1024,1024,1024,1024,2,FALSE,FALSE,FALSE,FALSE,FALSE,0,FALSE,FALSE,FALSE,FALSE,95,25.447,4003,4214,25.37,FALSE,4.236,4.239,4.24,4.247,4.248,4.24,0.018,FALSE,FALSE,63.944,73.5,73.5,73.5,0,0,0,15,10,0,0,,Idle,0,30,FALSE,10,TRUE,9,Go Home,,,,5733.9,,FALSE,1,1,FALSE,FALSE,FALSE,FALSE,0,TRUE,FALSE,FALSE,Course Lock,65.6,36.3,,Calm,5,Android, 3.1.38,RGP Craft,410059536,,03LD015147,6781073611,39.987,0,0.7,0,0.2,1,0,RGP Craft,410059536,,03LD015147,6781073611,,Android, 3.1.38,,,,,,
6/15/2018,17:17:54,0m 8.9s,8.9,0,0,0.3,0.3,29.5,0,0,0,0,0,0,0,0,0,43.1,7.2,22.3,22.3,Manual Takeoff,Unpack Mode,Takeoff (RC Assisted),0,0,FALSE,,Inspire 1,FALSE,FALSE,,Smart,RC,FALSE,TRUE,FALSE,,Other (133),TRUE,,FALSE,FALSE,FALSE,FALSE,TRUE,FALSE,FALSE,FALSE,FALSE,TRUE,0,Follow Yaw,30,0,19.6,19.6,FALSE,FALSE,FALSE,FALSE,FALSE,FALSE,,TRUE,Normal,,,1024,1024,1024,1024,2,FALSE,FALSE,FALSE,FALSE,FALSE,0,FALSE,FALSE,FALSE,FALSE,95,25.447,4003,4214,25.37,FALSE,4.236,4.239,4.24,4.247,4.248,4.24,0.018,FALSE,FALSE,63.944,73.5,73.5,73.5,0,0,0,15,10,0,0,,Idle,0,30,FALSE,10,TRUE,9,Go Home,,,,5733.9,,FALSE,1,1,FALSE,FALSE,FALSE,FALSE,0,TRUE,FALSE,FALSE,Course Lock,65.6,36.3,,Calm,5,Android, 3.1.38,RGP Craft,410059536,,03LD015147,6781073611,39.987,0,0.7,0,0.2,1,0,RGP Craft,410059536,,03LD015147,6781073611,,Android, 3.1.38,,,,,,
6/15/2018,17:17:54,0m 9.0s,9,0,0,0.3,0.3,29.5,0,0,0,0,0,0,0,0,0,43.5,7.4,22.4,22.4,Manual Takeoff,Unpack Mode,Takeoff (RC Assisted),0,0,FALSE,,Inspire 1,FALSE,FALSE,,Smart,RC,FALSE,TRUE,FALSE,,Other (133),TRUE,,FALSE,FALSE,FALSE,FALSE,TRUE,FALSE,FALSE,FALSE,FALSE,TRUE,0,Follow Yaw,30,0,19.6,19.6,FALSE,FALSE,FALSE,FALSE,FALSE,FALSE,,TRUE,Normal,,,1024,1024,1024,1024,2,FALSE,FALSE,FALSE,FALSE,FALSE,0,FALSE,FALSE,FALSE,FALSE,95,25.447,4003,4214,25.364,FALSE,4.236,4.238,4.24,4.246,4.247,4.239,0.018,FALSE,FALSE,63.944,73.5,73.5,73.5,0,0,0,15,10,0,0,,Idle,0,30,FALSE,10,TRUE,9,Go Home,,,,5733.9,,FALSE,1,1,FALSE,FALSE,FALSE,FALSE,0,TRUE,FALSE,FALSE,Course Lock,65.6,36.3,,Calm,5,Android, 3.1.38,RGP Craft,410059536,,03LD015147,6781073611,39.987,0,0.7,0,0.2,1,0,RGP Craft,410059536,,03LD015147,6781073611,,Android, 3.1.38,,,,,,
6/15/2018,17:17:54,0m 9.1s,9.1,0,0,0.3,0.3,29.5,0,0,0,0,0,0,0,0,0,43.9,7.4,22.5,22.5,Manual Takeoff,Unpack Mode,Takeoff (RC Assisted),0,0,FALSE,,Inspire 1,FALSE,FALSE,,Smart,RC,FALSE,TRUE,FALSE,,Other (133),TRUE,,FALSE,FALSE,FALSE,FALSE,TRUE,FALSE,FALSE,FALSE,FALSE,TRUE,0,Follow Yaw,30,0,19.6,19.6,FALSE,FALSE,FALSE,FALSE,FALSE,FALSE,,TRUE,Normal,,,1024,1024,1024,1024,2,FALSE,FALSE,FALSE,FALSE,FALSE,0,FALSE,FALSE,FALSE,FALSE,95,25.447,4003,4214,25.364,FALSE,4.236,4.238,4.24,4.246,4.247,4.239,0.018,FALSE,FALSE,63.944,73.5,73.5,73.5,0,0,0,15,10,0,0,,Idle,0,30,FALSE,10,TRUE,9,Go Home,,,,5733.9,,FALSE,1,1,FALSE,FALSE,FALSE,FALSE,0,TRUE,FALSE,FALSE,Course Lock,65.6,36.3,,Calm,5,Android, 3.1.38,RGP Craft,410059536,,03LD015147,6781073611,39.987,0,0.7,0,0.2,1,0,RGP Craft,410059536,,03LD015147,6781073611,,Android, 3.1.38,,,,,,
6/15/2018,17:17:54,0m 9.2s,9.2,0,0,0.3,0.3,29.9,0,0,0,0,0,0,0,-0.2,0,44,7.5,22.5,22.5,Manual Takeoff,Unpack Mode,Takeoff (RC Assisted),0,0,FALSE,,Inspire 1,FALSE,FALSE,,Smart,RC,FALSE,TRUE,FALSE,,Other (133),TRUE,,FALSE,FALSE,FALSE,FALSE,TRUE,FALSE,FALSE,FALSE,FALSE,TRUE,0,Follow Yaw,30,0,19.6,19.6,FALSE,FALSE,FALSE,FALSE,FALSE,FALSE,,TRUE,Normal,,,1024,1024,1024,1024,2,FALSE,FALSE,FALSE,FALSE,FALSE,0,FALSE,FALSE,FALSE,FALSE,95,25.447,4003,4214,25.364,FALSE,4.236,4.238,4.24,4.246,4.247,4.239,0.018,FALSE,FALSE,63.944,73.5,73.5,73.5,0,0,0,15,10,0,0,,Idle,0,30,FALSE,10,TRUE,9,Go Home,,,,5733.9,,FALSE,1,1,FALSE,FALSE,FALSE,FALSE,0,TRUE,FALSE,FALSE,Course Lock,65.6,36.3,,Calm,5,Android, 3.1.38,RGP Craft,410059536,,03LD015147,6781073611,39.987,0,0.7,0,0.2,1,0,RGP Craft,410059536,,03LD015147,6781073611,,Android, 3.1.38,,,,,,
6/15/2018,17:17:54,0m 9.3s,9.3,0,0,0.3,0.3,29.9,0,0,0,0,0,0,0,0,0,44.1,7.5,22.6,22.6,Manual Takeoff,Unpack Mode,Takeoff (RC Assisted),0,0,FALSE,,Inspire 1,FALSE,FALSE,,Smart,RC,FALSE,TRUE,FALSE,,Other (133),TRUE,,FALSE,FALSE,FALSE,FALSE,TRUE,FALSE,FALSE,FALSE,FALSE,TRUE,0,Follow Yaw,30,0,19.6,19.6,FALSE,FALSE,FALSE,FALSE,FALSE,FALSE,,TRUE,Normal,,,1024,1024,1024,1024,2,FALSE,FALSE,FALSE,FALSE,FALSE,0,FALSE,FALSE,FALSE,FALSE,95,25.447,4003,4214,25.364,FALSE,4.236,4.238,4.24,4.246,4.247,4.239,0.018,FALSE,FALSE,63.944,73.5,73.5,73.5,0,0,0,15,10,0,0,,Idle,0,30,FALSE,10,TRUE,9,Go Home,,,,5733.9,,FALSE,1,1,FALSE,FALSE,FALSE,FALSE,0,TRUE,FALSE,FALSE,Course Lock,65.6,36.3,,Calm,5,Android, 3.1.38,RGP Craft,410059536,,03LD015147,6781073611,39.987,0,0.7,0,0.2,1,0,RGP Craft,410059536,,03LD015147,6781073611,,Android, 3.1.38,,,,,,
6/15/2018,17:17:54,0m 9.4s,9.4,0,0,0.3,0.3,30.2,0,0,0,0,0,0,0,0,0,44.3,7.5,22.7,22.7,Manual Takeoff,Unpack Mode,Takeoff (RC Assisted),0,0,FALSE,,Inspire 1,FALSE,FALSE,,Smart,RC,FALSE,TRUE,FALSE,,Other (188),TRUE,,FALSE,FALSE,FALSE,FALSE,TRUE,FALSE,FALSE,FALSE,FALSE,TRUE,0,Follow Yaw,30,0,19.6,19.6,FALSE,FALSE,FALSE,FALSE,FALSE,FALSE,,TRUE,Normal,,,1024,1024,1024,1024,2,FALSE,FALSE,FALSE,FALSE,FALSE,0,FALSE,FALSE,FALSE,FALSE,95,25.447,4003,4214,25.364,FALSE,4.236,4.238,4.24,4.246,4.247,4.239,0.018,FALSE,FALSE,63.944,73.5,73.5,73.5,0,0,0,15,10,0,0,,Idle,0,30,FALSE,10,TRUE,9,Go Home,,,,5733.9,,FALSE,1,1,FALSE,FALSE,FALSE,FALSE,0,TRUE,FALSE,FALSE,Course Lock,65.6,36.3,,Calm,5,Android, 3.1.38,RGP Craft,410059536,,03LD015147,6781073611,39.987,0,0.7,0,0.2,1,0,RGP Craft,410059536,,03LD015147,6781073611,,Android, 3.1.38,,,,,,
6/15/2018,17:17:54,0m 9.5s,9.5,0,0,0.3,0.3,30.2,0,0,0,0,0,0,0,0,0,44.4,7.6,22.7,22.7,Manual Takeoff,Unpack Mode,Takeoff (RC Assisted),0,0,FALSE,,Inspire 1,FALSE,FALSE,,Smart,RC,FALSE,TRUE,FALSE,,Other (188),TRUE,,FALSE,FALSE,FALSE,FALSE,TRUE,FALSE,FALSE,FALSE,FALSE,TRUE,0,Follow Yaw,30,0,19.6,19.6,FALSE,FALSE,FALSE,FALSE,FALSE,FALSE,,TRUE,Normal,,,1024,1024,1024,1024,2,FALSE,FALSE,FALSE,FALSE,FALSE,0,FALSE,FALSE,FALSE,FALSE,95,25.447,4003,4214,25.364,FALSE,4.236,4.238,4.24,4.246,4.247,4.239,0.018,FALSE,FALSE,63.944,73.5,73.5,73.5,0,0,0,15,10,0,0,,Idle,0,30,FALSE,10,TRUE,9,Go Home,,,,5733.9,,FALSE,1,1,FALSE,FALSE,FALSE,FALSE,0,TRUE,FALSE,FALSE,Course Lock,65.6,36.3,,Calm,5,Android, 3.1.38,RGP Craft,410059536,,03LD015147,6781073611,39.987,0,0.7,0,0.2,1,0,RGP Craft,410059536,,03LD015147,6781073611,,Android, 3.1.38,,,,,,
6/15/2018,17:17:54,0m 9.6s,9.6,0,0,0.3,0.3,30.2,0,0,0,0,0,0,0,0,0,44.2,7.7,22.7,22.7,Manual Takeoff,Unpack Mode,Takeoff (RC Assisted),0,0,FALSE,,Inspire 1,FALSE,FALSE,,Smart,RC,FALSE,TRUE,FALSE,,Other (188),TRUE,,FALSE,FALSE,FALSE,FALSE,TRUE,FALSE,FALSE,FALSE,FALSE,TRUE,0,Follow Yaw,30,0,19.6,19.6,FALSE,FALSE,FALSE,FALSE,FALSE,FALSE,,TRUE,Normal,,,1024,1024,1024,1024,2,TRUE,FALSE,FALSE,FALSE,FALSE,0,FALSE,FALSE,FALSE,FALSE,95,25.447,4003,4214,25.364,FALSE,4.236,4.238,4.24,4.246,4.247,4.239,0.018,FALSE,FALSE,63.944,73.5,73.5,73.5,0,0,0,15,10,0,0,,Idle,0,30,FALSE,10,TRUE,9,Go Home,,,,5733.9,,FALSE,1,1,FALSE,FALSE,FALSE,FALSE,0,TRUE,FALSE,FALSE,Course Lock,65.6,36.3,,Calm,5,Android, 3.1.38,RGP Craft,410059536,,03LD015147,6781073611,39.987,0,0.7,0,0.2,1,0,RGP Craft,410059536,,03LD015147,6781073611,,Android, 3.1.38,,,,,,
6/15/2018,17:17:54,0m 9.7s,9.7,0,0,0.3,0.3,30.5,0,0,0,0,0,0,0,0,0,44.1,7.8,22.8,22.8,Manual Takeoff,Unpack Mode,Takeoff (RC Assisted),0,0,FALSE,,Inspire 1,FALSE,FALSE,,Smart,RC,FALSE,TRUE,FALSE,,Other (188),TRUE,,FALSE,FALSE,FALSE,FALSE,TRUE,FALSE,FALSE,FALSE,FALSE,TRUE,0,Follow Yaw,29.9,0,19.6,19.6,FALSE,FALSE,FALSE,FALSE,FALSE,FALSE,,TRUE,Normal,,,1024,1024,1024,1024,2,TRUE,FALSE,FALSE,FALSE,FALSE,0,FALSE,FALSE,FALSE,FALSE,95,25.447,4003,4214,25.364,FALSE,4.236,4.238,4.24,4.246,4.247,4.239,0.018,FALSE,FALSE,63.944,73.5,73.5,73.5,0,0,0,15,10,0,0,,Idle,0,30,FALSE,10,TRUE,9,Go Home,,,,5733.9,,FALSE,1,1,FALSE,FALSE,FALSE,FALSE,0,TRUE,FALSE,FALSE,Course Lock,65.6,36.3,,Calm,5,Android, 3.1.38,RGP Craft,410059536,,03LD015147,6781073611,39.987,0,0.7,0,0.2,1,0,RGP Craft,410059536,,03LD015147,6781073611,,Android, 3.1.38,,,,,,
6/15/2018,17:17:54,0m 9.8s,9.8,0,0,0.3,0.3,30.5,0,0,0,0,0,0,0,0,0,43.9,7.9,22.8,22.8,Manual Takeoff,Unpack Mode,Takeoff (RC Assisted),0,0,FALSE,,Inspire 1,FALSE,FALSE,,Smart,RC,FALSE,TRUE,FALSE,,Other (188),TRUE,,FALSE,FALSE,FALSE,FALSE,TRUE,FALSE,FALSE,FALSE,FALSE,TRUE,0,Follow Yaw,29.9,0,19.6,19.6,FALSE,FALSE,FALSE,FALSE,FALSE,FALSE,,TRUE,Normal,,,1024,1024,1024,1024,2,FALSE,FALSE,FALSE,FALSE,FALSE,0,FALSE,FALSE,FALSE,FALSE,95,25.447,4003,4214,25.364,FALSE,4.236,4.238,4.24,4.246,4.247,4.239,0.018,FALSE,FALSE,63.944,73.5,73.5,73.5,0,0,0,15,10,0,0,,Idle,0,30,FALSE,10,TRUE,9,Go Home,,,,5733.9,,FALSE,1,1,FALSE,FALSE,FALSE,FALSE,0,TRUE,FALSE,FALSE,Course Lock,65.6,36.3,,Calm,5,Android, 3.1.38,RGP Craft,410059536,,03LD015147,6781073611,39.987,0,0.7,0,0.2,1,0,RGP Craft,410059536,,03LD015147,6781073611,,Android, 3.1.38,,,,,,
6/15/2018,17:17:55,0m 9.9s,9.9,0,0,0.3,0.3,30.5,0,0,0,0,0,0,0,0,0,44,7.9,22.8,22.8,Manual Takeoff,Unpack Mode,Takeoff (RC Assisted),0,0,FALSE,,Inspire 1,FALSE,FALSE,,Smart,RC,FALSE,TRUE,FALSE,,Other (188),TRUE,,FALSE,FALSE,FALSE,FALSE,TRUE,FALSE,FALSE,FALSE,FALSE,TRUE,0,Follow Yaw,30,0,19.6,19.6,FALSE,FALSE,FALSE,FALSE,FALSE,FALSE,,TRUE,Normal,,,1024,1024,1024,1024,2,FALSE,FALSE,FALSE,FALSE,FALSE,0,FALSE,FALSE,FALSE,FALSE,95,25.447,4003,4214,25.364,FALSE,4.236,4.238,4.24,4.246,4.247,4.239,0.018,FALSE,FALSE,63.944,73.5,73.5,73.5,0,0,0,15,10,0,0,,Idle,0,30,FALSE,10,TRUE,9,Go Home,,,,5733.9,,FALSE,1,1,FALSE,FALSE,FALSE,FALSE,0,TRUE,FALSE,FALSE,Course Lock,65.6,36.3,,Calm,5,Android, 3.1.38,RGP Craft,410059536,,03LD015147,6781073611,39.987,0,0.7,0,0.2,1,0,RGP Craft,410059536,,03LD015147,6781073611,,Android, 3.1.38,,,,,,
6/15/2018,17:17:55,0m 10.0s,10,0,0,0.3,0.3,30.8,0,0,0,0,0,0,0,0,0,44.2,8,22.9,22.9,Manual Takeoff,Unpack Mode,Takeoff (RC Assisted),0,0,FALSE,,Inspire 1,FALSE,FALSE,,Smart,RC,FALSE,TRUE,FALSE,,Other (188),TRUE,,FALSE,FALSE,FALSE,FALSE,TRUE,FALSE,FALSE,FALSE,FALSE,TRUE,0,Follow Yaw,30,0,19.6,19.6,FALSE,FALSE,FALSE,FALSE,FALSE,FALSE,,TRUE,Normal,,,1024,1024,1024,1024,2,FALSE,FALSE,FALSE,FALSE,FALSE,0,FALSE,FALSE,FALSE,FALSE,95,25.445,4003,4214,25.359,FALSE,4.236,4.238,4.239,4.245,4.247,4.239,0.018,FALSE,FALSE,63.944,73.5,73.5,73.5,0,0,0,15,10,0,0,,Idle,0,30,FALSE,10,TRUE,9,Go Home,,,,5733.9,,FALSE,1,1,FALSE,FALSE,FALSE,FALSE,0,TRUE,FALSE,FALSE,Course Lock,65.6,36.3,,Calm,5,Android, 3.1.38,RGP Craft,410059536,,03LD015147,6781073611,39.987,0,0.7,0,0.2,1,0,RGP Craft,410059536,,03LD015147,6781073611,,Android, 3.1.38,,,,,,
6/15/2018,17:17:55,0m 10.2s,10.2,0,0,0.3,0.3,30.8,0,0,0,0,0,0,0,0,0,44.4,8,23,23,Manual Takeoff,Unpack Mode,Takeoff (RC Assisted),0,0,FALSE,,Inspire 1,FALSE,FALSE,,Smart,RC,FALSE,TRUE,FALSE,,Other (188),TRUE,,FALSE,FALSE,FALSE,FALSE,TRUE,FALSE,FALSE,FALSE,FALSE,TRUE,0,Follow Yaw,30,0,19.6,19.6,FALSE,FALSE,FALSE,FALSE,FALSE,FALSE,,TRUE,Normal,,,1024,1024,1024,1024,2,FALSE,FALSE,FALSE,FALSE,FALSE,0,FALSE,FALSE,FALSE,FALSE,95,25.445,4003,4214,25.359,FALSE,4.236,4.238,4.239,4.245,4.247,4.239,0.018,FALSE,FALSE,63.944,73.5,73.5,73.5,0,0,0,15,10,0,0,,Idle,0,30,FALSE,10,TRUE,9,Go Home,,,,5733.9,,FALSE,1,1,FALSE,FALSE,FALSE,FALSE,0,TRUE,FALSE,FALSE,Course Lock,65.6,36.3,,Calm,5,Android, 3.1.38,RGP Craft,410059536,,03LD015147,6781073611,39.987,0,0.7,0,0.2,1,0,RGP Craft,410059536,,03LD015147,6781073611,,Android, 3.1.38,,,,,,
6/15/2018,17:17:55,0m 10.3s,10.3,0,0,0.3,0.3,31.2,0,0,0,0,0,0,0,0,0,44.3,7.9,22.9,22.9,Manual Takeoff,Unpack Mode,Takeoff (RC Assisted),0,0,FALSE,,Inspire 1,FALSE,FALSE,,Smart,RC,FALSE,TRUE,FALSE,,Other (188),TRUE,,FALSE,FALSE,FALSE,FALSE,TRUE,FALSE,FALSE,FALSE,FALSE,TRUE,0,Follow Yaw,29.9,0,19.6,19.6,FALSE,FALSE,FALSE,FALSE,FALSE,FALSE,,TRUE,Normal,,,1024,1024,1024,1024,2,FALSE,FALSE,FALSE,FALSE,FALSE,0,FALSE,FALSE,FALSE,FALSE,95,25.445,4003,4214,25.359,FALSE,4.236,4.238,4.239,4.245,4.247,4.239,0.018,FALSE,FALSE,63.944,73.5,73.5,73.5,0,0,0,15,10,0,0,,Idle,0,30,FALSE,10,TRUE,9,Go Home,,,,5733.9,,FALSE,1,1,FALSE,FALSE,FALSE,FALSE,0,TRUE,FALSE,FALSE,Course Lock,65.6,36.3,,Calm,5,Android, 3.1.38,RGP Craft,410059536,,03LD015147,6781073611,39.987,0,0.7,0,0.2,1,0,RGP Craft,410059536,,03LD015147,6781073611,,Android, 3.1.38,,,,,,
6/15/2018,17:17:55,0m 10.4s,10.4,0,0,0.3,0.3,31.2,0,0,0,0,0,0,0,0,0,44.1,7.9,22.8,22.8,Manual Takeoff,Unpack Mode,Takeoff (RC Assisted),0,0,FALSE,,Inspire 1,FALSE,FALSE,,Smart,RC,FALSE,TRUE,FALSE,,Other (242),TRUE,,FALSE,FALSE,FALSE,FALSE,TRUE,FALSE,FALSE,FALSE,FALSE,TRUE,0,Follow Yaw,29.9,0,19.6,19.6,FALSE,FALSE,FALSE,FALSE,FALSE,FALSE,,TRUE,Normal,,,1024,1024,1024,1024,2,FALSE,FALSE,FALSE,FALSE,FALSE,0,FALSE,FALSE,FALSE,FALSE,95,25.445,4003,4214,25.359,FALSE,4.236,4.238,4.239,4.245,4.247,4.239,0.018,FALSE,FALSE,63.944,73.5,73.5,73.5,0,0,0,15,10,0,0,,Idle,0,30,FALSE,10,TRUE,9,Go Home,,,,5733.9,,FALSE,1,1,FALSE,FALSE,FALSE,FALSE,0,TRUE,FALSE,FALSE,Course Lock,65.6,36.3,,Calm,5,Android, 3.1.38,RGP Craft,410059536,,03LD015147,6781073611,39.987,0,0.7,0,0.2,1,0,RGP Craft,410059536,,03LD015147,6781073611,,Android, 3.1.38,,,,,,
6/15/2018,17:17:55,0m 10.7s,10.7,0,0,0.3,0.3,31.5,0,0,0,0,0,0,0,-0.2,0,44,8,22.9,22.9,Manual Takeoff,Unpack Mode,Takeoff (RC Assisted),0,0,FALSE,,Inspire 1,FALSE,FALSE,,Smart,RC,FALSE,TRUE,FALSE,,Other (242),TRUE,,FALSE,FALSE,FALSE,FALSE,TRUE,FALSE,FALSE,FALSE,FALSE,TRUE,0,Follow Yaw,30,0,19.6,19.6,FALSE,FALSE,FALSE,FALSE,FALSE,FALSE,,TRUE,Normal,,,1024,1024,1024,1024,2,FALSE,FALSE,FALSE,FALSE,FALSE,0,FALSE,FALSE,FALSE,FALSE,95,25.445,4003,4214,25.359,FALSE,4.236,4.238,4.239,4.245,4.247,4.239,0.018,FALSE,FALSE,63.944,73.5,73.5,73.5,0,0,0,15,10,0,0,,Idle,0,30,FALSE,10,TRUE,9,Go Home,,,,5733.9,,FALSE,1,1,FALSE,FALSE,FALSE,FALSE,0,TRUE,FALSE,FALSE,Course Lock,65.6,36.3,,Calm,5,Android, 3.1.38,RGP Craft,410059536,,03LD015147,6781073611,39.987,0,0.7,0,0.2,1,0,RGP Craft,410059536,,03LD015147,6781073611,,Android, 3.1.38,,,,,,
6/15/2018,17:17:56,0m 10.9s,10.9,0,0,0.3,0.3,31.8,0,0,0,0,0,0,0,0,0,44.3,8,23,23,Manual Takeoff,Unpack Mode,Takeoff (RC Assisted),0,0,FALSE,,Inspire 1,FALSE,FALSE,,Smart,RC,FALSE,TRUE,FALSE,,Other (242),TRUE,,FALSE,FALSE,FALSE,FALSE,TRUE,FALSE,FALSE,FALSE,FALSE,TRUE,0,Follow Yaw,30,0,19.6,19.6,FALSE,FALSE,FALSE,FALSE,FALSE,FALSE,,TRUE,Normal,,,1024,1024,1024,1024,2,FALSE,FALSE,FALSE,FALSE,FALSE,0,FALSE,FALSE,FALSE,FALSE,95,25.445,4003,4214,25.359,FALSE,4.236,4.238,4.239,4.245,4.247,4.239,0.018,FALSE,FALSE,63.944,73.5,73.5,73.5,0,0,0,15,10,0,0,,Idle,0,30,FALSE,10,TRUE,9,Go Home,,,,5733.9,,FALSE,1,1,FALSE,FALSE,FALSE,FALSE,0,TRUE,FALSE,FALSE,Course Lock,65.6,36.3,,Calm,5,Android, 3.1.38,RGP Craft,410059536,,03LD015147,6781073611,39.987,0,0.7,0,0.2,1,0,RGP Craft,410059536,,03LD015147,6781073611,,Android, 3.1.38,,,,,,
6/15/2018,17:17:56,0m 11.1s,11.1,0,0,0.7,0.7,31.8,1,0,0,0,0,0,0,-0.2,0,44.2,8.1,23.1,23.1,Manual Takeoff,Unpack Mode,Takeoff (RC Assisted),0,0,FALSE,,Inspire 1,FALSE,FALSE,,Smart,RC,FALSE,TRUE,FALSE,,Other (242),TRUE,,FALSE,FALSE,FALSE,FALSE,TRUE,FALSE,FALSE,FALSE,FALSE,TRUE,0,Follow Yaw,29.9,0,19.6,19.6,FALSE,FALSE,FALSE,FALSE,FALSE,FALSE,,TRUE,Normal,,,1024,1024,1024,1024,2,FALSE,FALSE,FALSE,FALSE,FALSE,0,FALSE,FALSE,FALSE,FALSE,95,25.445,4003,4214,25.359,FALSE,4.236,4.238,4.239,4.245,4.247,4.239,0.018,FALSE,FALSE,63.944,73.5,73.5,73.5,0,0,0,15,10,0,0,,Idle,0,30,FALSE,10,TRUE,9,Go Home,,,,5733.9,,FALSE,1,1,FALSE,FALSE,FALSE,FALSE,0,TRUE,FALSE,FALSE,Course Lock,65.6,36.3,,Calm,5,Android, 3.1.38,RGP Craft,410059536,,03LD015147,6781073611,39.987,0,0.7,0,0.2,1,0,RGP Craft,410059536,,03LD015147,6781073611,,Android, 3.1.38,,,,,,
6/15/2018,17:17:56,0m 11.2s,11.2,0,0,0.3,0.7,32.2,0,0,0,0,0,0,0,0,0,44,8.2,23.2,23.2,Manual Takeoff,Unpack Mode,Takeoff (RC Assisted),0,0,FALSE,,Inspire 1,FALSE,FALSE,,Smart,RC,FALSE,TRUE,FALSE,,Other (242),TRUE,,FALSE,FALSE,FALSE,FALSE,TRUE,FALSE,FALSE,FALSE,FALSE,TRUE,0,Follow Yaw,30,0,19.6,19.6,FALSE,FALSE,FALSE,FALSE,FALSE,FALSE,,TRUE,Normal,,,1024,1024,1024,1024,2,FALSE,FALSE,FALSE,FALSE,FALSE,0,FALSE,FALSE,FALSE,FALSE,95,25.445,4003,4214,25.359,FALSE,4.236,4.238,4.239,4.245,4.247,4.239,0.018,FALSE,FALSE,63.944,73.5,73.5,73.5,0,0,0,15,10,0,0,,Idle,0,30,FALSE,10,TRUE,9,Go Home,,,,5733.9,,FALSE,1,1,FALSE,FALSE,FALSE,FALSE,0,TRUE,FALSE,FALSE,Course Lock,65.6,36.3,,Calm,5,Android, 3.1.38,RGP Craft,410059536,,03LD015147,6781073611,39.987,0,0.7,0,0.2,1,0,RGP Craft,410059536,,03LD015147,6781073611,,Android, 3.1.38,,,,,,
